name,type,Borough,EditDate,latitude,longitude,Status,ClosureType
Sunken Playground,pg,M,2020-05-21 11:10:17,40.83789503019744,-73.93606682793899,COVID-19 Closure,Not Lockable
Rock Garden Park,pg,X,2020-05-21 11:10:12,40.83522130066535,-73.88518423007375,COVID-19 Closure,Completely Locked
Garrison Playground,pg,X,2020-05-21 11:09:47,40.817388066348734,-73.9281917327351,COVID-19 Closure,Completely Locked
K.l. Williams Playground (Tennis),pg,Q,2020-05-21 11:10:32,40.70384827298734,-73.78505562920957,COVID-19 Closure,Completely Locked
Juniper North Playground Tennis,pg,Q,2020-05-21 11:08:22,40.72018675240357,-73.87769775064412,COVID-19 Closure,Completely Locked
Stanley Isaacs Playground,pg,M,2020-05-21 11:07:36,40.7826683116308,-73.94485264743886,COVID-19 Closure,Partially Locked
Great Lawn Plgd,pg,M,2020-05-21 11:10:32,40.78247647679099,-73.96444442562833,COVID-19 Closure,Not Lockable
Scylla Playground,pg,M,2020-05-21 11:07:27,40.78395160776719,-73.9255957500594,COVID-19 Closure,Completely Locked
Callahan-Kelly Playground,pg,B,2020-05-21 11:06:11,40.67831361810909,-73.90654102617172,COVID-19 Closure,Completely Locked
Galileo Playground,pg,X,2020-05-21 11:10:11,40.84867829129451,-73.91584004895996,COVID-19 Closure,Completely Locked
Bath Playground,pg,B,2020-05-21 11:06:52,40.59530400926753,-73.99312749637316,COVID-19 Closure,Completely Locked
White Playground,pg,M,2020-05-21 11:07:33,40.791505381663264,-73.94598801151152,COVID-19 Closure,Completely Locked
Bensonhurst Park Playground,pg,B,2020-05-21 11:05:38,40.596953973864395,-73.99982556769531,COVID-19 Closure,Completely Locked
Northern Playground,pg,Q,2020-05-21 11:08:58,40.75627921904649,-73.8743755648361,COVID-19 Closure,Partially Locked
Merriam Plgd (Lower),pg,X,2020-05-21 11:09:56,40.83921155455488,-73.92619832084705,COVID-19 Closure,Completely Locked
Nehemiah Park,pg,B,2020-05-21 11:06:58,40.661896118849086,-73.90561593948861,COVID-19 Closure,Completely Locked
Colgate Close,pg,X,2020-05-21 11:10:03,40.823666852825355,-73.88146191964121,COVID-19 Closure,Partially Locked
Bayside Playground,pg,Q,2020-05-21 11:09:02,40.58498302779673,-73.8248994821135,COVID-19 Closure,Completely Locked
Sumner Playground,pg,B,2020-05-21 11:06:27,40.69715431038876,-73.94301604749565,COVID-19 Closure,Completely Locked
Elizabeth Stroud Playground,pg,B,2020-05-21 11:06:06,40.67961916795001,-73.9310715611164,COVID-19 Closure,Completely Locked
Rocket Playground,pg,Q,2020-05-21 11:09:07,40.67068311296701,-73.8465596625497,COVID-19 Closure,Completely Locked
Mathews-Palmer Playground,pg,M,2020-05-21 11:07:34,40.76128980892847,-73.99285552744134,COVID-19 Closure,Completely Locked
Morton Plgd,pg,X,2020-05-21 11:09:31,40.851204610576566,-73.91423156715948,COVID-19 Closure,Completely Locked
Raymond Bush Playground,pg,B,2020-05-21 11:06:11,40.68648340007733,-73.9389582470139,COVID-19 Closure,Completely Locked
McLaughlin Playground,pg,Q,2020-05-21 11:08:07,40.72556914094872,-73.76634505944169,COVID-19 Closure,Completely Locked
Crispus Attucks Playground,pg,B,2020-05-21 11:05:54,40.68146499561285,-73.95896973384224,COVID-19 Closure,Completely Locked
Junction Playground,pg,Q,2020-05-21 11:08:26,40.75470591159668,-73.87214706962544,COVID-19 Closure,Partially Locked
Crotona Playground (1),pg,X,2020-05-21 11:09:33,40.842112080996365,-73.89475796534899,COVID-19 Closure,Not Lockable
Elton Playground,pg,B,2020-05-21 11:05:59,40.66620012367576,-73.88101247358124,COVID-19 Closure,Completely Locked
St. Mary's Park,pg,B,2020-05-21 11:10:37,40.676430721454615,-73.9972220658303,COVID-19 Closure,Completely Locked
Bergen Beach Playground,pg,B,2020-05-21 11:06:53,40.62224561527127,-73.90968223904605,COVID-19 Closure,Completely Locked
Lower East Side Playground,pg,M,2020-05-21 11:07:56,40.72929579816745,-73.98307930621863,COVID-19 Closure,Completely Locked
Riverbank Plgd,pg,M,2020-05-21 11:07:21,40.82572355635538,-73.95378205025877,COVID-19 Closure,Completely Locked
Willis Playground,pg,X,2020-05-21 11:10:08,40.81107548773053,-73.9224622870262,COVID-19 Closure,Partially Locked
Buzz Vollmer Playground,pg,Q,2020-05-21 11:08:21,40.749960780673746,-73.84155328301553,COVID-19 Closure,Completely Locked
Ampere Playground,pg,Q,2020-05-21 11:09:00,40.681646563762946,-73.85678394270505,COVID-19 Closure,Partially Locked
Alley Park,pg,Q,2020-05-21 11:08:55,40.74698486554804,-73.74597545029992,COVID-19 Closure,Partially Locked
Coffey Park Playground,pg,B,2020-05-21 11:05:51,40.676907922843014,-74.00872275061043,COVID-19 Closure,Not Lockable
Hunts Point Playground,pg,X,2020-05-21 11:09:49,40.81417818884226,-73.88604608351588,COVID-19 Closure,Completely Locked
Walter Ward Playground,pg,Q,2020-05-21 11:09:07,40.65713470739692,-73.84372515488458,COVID-19 Closure,Completely Locked
Audubon Playground,pg,M,2020-05-21 11:07:48,40.84173305079142,-73.93813598595109,COVID-19 Closure,Completely Locked
Lt. Federico Narvaez Tot Lot,pg,B,2020-05-21 11:06:58,40.640267443927,-73.96591853569674,COVID-19 Closure,Completely Locked
Fort Greene Park,pg,B,2020-05-21 11:05:43,40.69028369166814,-73.97368981550773,COVID-19 Closure,Completely Locked
Allerton Playground,pg,X,2020-05-21 11:10:00,40.86558574299954,-73.85051321352483,COVID-19 Closure,Not Lockable
Dr. Gertrude B. Kelly Playground,pg,M,2020-05-21 11:07:17,40.74161986180136,-74.00190759338912,COVID-19 Closure,Completely Locked
Drumgoole Tot Lot,pg,R,2020-05-21 11:09:27,40.54914586501815,-74.18004561017962,COVID-19 Closure,Not Lockable
Fort Independence Playground,pg,X,2020-05-21 11:09:36,40.88164642284838,-73.89603138416986,COVID-19 Closure,Completely Locked
Christopher J. Igneri Playground,pg,R,2020-05-21 11:09:21,40.608684852850764,-74.11972103938858,COVID-19 Closure,Completely Locked
Lenape Playground,pg,B,2020-05-21 11:05:46,40.60630479483109,-73.92633463041014,COVID-19 Closure,Completely Locked
Gene Gray Playground,pg,Q,2020-05-21 11:09:13,40.6061999532459,-73.81915502806407,COVID-19 Closure,Completely Locked
Mariner's Gate Plgd,pg,M,2020-05-21 11:07:04,40.78406021476048,-73.9696490742052,COVID-19 Closure,Completely Locked
Playland Playground,pg,R,2020-05-21 11:10:35,40.58891429251966,-74.06752237610642,COVID-19 Closure,Completely Locked
Herman Dolgon Playground,pg,B,2020-05-21 11:06:18,40.59817760643549,-73.93949161638577,COVID-19 Closure,Completely Locked
Rockaway Beach Playground,pg,Q,2020-05-21 11:08:34,40.586385582945695,-73.80184216548952,COVID-19 Closure,Completely Locked
Behagen Playground,pg,X,2020-05-21 11:09:59,40.82534206980978,-73.90119104664835,COVID-19 Closure,Partially Locked
Ben Abrams Playground,pg,X,2020-05-21 11:09:31,40.854486519922034,-73.8701593339941,COVID-19 Closure,Not Lockable
Bloomingdale Playground,pg,R,2020-05-21 11:09:27,40.53517448172024,-74.20878845419341,COVID-19 Closure,Completely Locked
P.S. 125 Playground,pg,B,2020-05-21 11:06:16,40.66513125352902,-73.90926429519091,COVID-19 Closure,Completely Locked
Hallets Cove Playground (area A),pg,Q,2020-05-21 11:08:37,40.77182038823631,-73.93444767124964,COVID-19 Closure,Completely Locked
Tompkins Square Park,pg,M,2020-05-21 11:07:23,40.726789086147285,-73.98254826473557,COVID-19 Closure,Completely Locked
Playground,pg,Q,2020-05-21 11:08:08,40.748674361455166,-73.80313965720343,COVID-19 Closure,Completely Locked
Sidney Hillman Playground,pg,M,2020-05-21 11:07:38,40.71533931838738,-73.97956722618575,COVID-19 Closure,Completely Locked
Naples Playground,pg,R,2020-05-21 11:09:24,40.60218552952066,-74.09065717313047,COVID-19 Closure,Completely Locked
Governor Smith Playground,pg,X,2020-05-21 11:10:28,40.81947761618834,-73.92061176844224,COVID-19 Closure,Completely Locked
Strong Street Plgd,pg,X,2020-05-21 11:09:39,40.87142546640345,-73.8981487856322,COVID-19 Closure,Not Lockable
Holcombe Rucker Park,pg,M,2020-05-21 11:07:43,40.8291454522946,-73.93664890621761,COVID-19 Closure,Partially Locked
Pat Parlato Plgd,pg,B,2020-05-21 11:06:22,40.57704542392992,-73.94673389881325,COVID-19 Closure,Completely Locked
Van Nest Park,pg,X,2020-05-21 11:10:35,40.84348224175955,-73.86584165949307,COVID-19 Closure,Completely Locked
Willow Lake Playground,pg,Q,2020-05-21 11:08:54,40.72248846456838,-73.83696798620232,COVID-19 Closure,Completely Locked
Telephone Playground,pg,Q,2020-05-21 11:08:54,40.73864316497183,-73.7564904706052,COVID-19 Closure,Completely Locked
Half-Nelson Playground,pg,X,2020-05-21 11:10:14,40.84659447534996,-73.91946044960264,COVID-19 Closure,Completely Locked
Poppenhusen Playground,pg,Q,2020-05-21 11:08:01,40.7813709014247,-73.84453372588767,COVID-19 Closure,Not Lockable
Fiorello La Guardia Park,pg,M,2020-05-21 11:07:57,40.72885529880294,-73.99807460777143,COVID-19 Closure,Completely Locked
Dimattina Playground,pg,B,2020-05-21 11:10:20,40.67996906869151,-74.00274430472467,COVID-19 Closure,Completely Locked
L/CPL Thomas P. Noonan Jr. Playground,pg,Q,2020-05-21 11:08:10,40.74114951016331,-73.92226563885282,COVID-19 Closure,Completely Locked
Tilyou Playground,pg,B,2020-05-21 11:10:28,40.577945622610216,-73.95847635254957,COVID-19 Closure,Completely Locked
Hattie Carthan Playground,pg,B,2020-05-21 11:06:46,40.68561922534463,-73.94649928796208,COVID-19 Closure,Completely Locked
Alfred E. Smith Playground,pg,M,2020-05-21 11:07:37,40.71117447078115,-73.99713869035907,COVID-19 Closure,Completely Locked
Police Officer Nicholas Demutiis Park,pg,Q,2020-05-21 11:08:25,40.6816237534203,-73.8394556358225,COVID-19 Closure,Not Lockable
P.S. 279 Playground,pg,B,2020-05-21 11:06:41,40.64462491899789,-73.89329741356441,COVID-19 Closure,Completely Locked
Thomas Jefferson Park Playground,pg,M,2020-05-21 11:07:14,40.79356556327197,-73.93461200611999,COVID-19 Closure,Completely Locked
Bennett Park,pg,M,2020-05-21 11:07:02,40.85321800188917,-73.93801412399652,COVID-19 Closure,Partially Locked
Poseidon Playground,pg,B,2020-05-21 11:06:06,40.57199162234597,-73.99222123120373,COVID-19 Closure,Completely Locked
Rudd Playground,pg,B,2020-05-21 11:05:57,40.68335206662396,-73.90523408122806,COVID-19 Closure,Completely Locked
Latimer Playground,pg,Q,2020-05-21 11:09:06,40.69653831066628,-73.78579784218152,COVID-19 Closure,Not Lockable
Baisley Park South,pg,Q,2020-05-21 11:08:00,40.66921165999442,-73.78813588044004,COVID-19 Closure,Not Lockable
Daniel Boone Playground,pg,X,2020-05-21 11:09:52,40.82964814783355,-73.88600572547502,COVID-19 Closure,Completely Locked
Rappaport Playground,pg,B,2020-05-21 11:06:01,40.637167677209135,-74.00111401126908,COVID-19 Closure,Completely Locked
Tot Lot One Hundred Five,pg,M,2020-05-21 11:07:19,40.80173411354255,-73.97093738345184,COVID-19 Closure,Completely Locked
Harry Maze Playground,pg,B,2020-05-21 11:06:35,40.64304998082743,-73.92340188053244,COVID-19 Closure,Completely Locked
Bland Playground,pg,Q,2020-05-21 11:08:48,40.75820068136691,-73.83128764265511,COVID-19 Closure,Completely Locked
Pena Herrera Playground,pg,B,2020-05-21 11:06:08,40.64939329460278,-74.012165426207,COVID-19 Closure,Completely Locked
Zimmerman Playground,pg,X,2020-05-21 11:09:44,40.86615553574015,-73.86873948234773,COVID-19 Closure,Completely Locked
Van Voorhees Playground,pg,B,2020-05-21 11:05:44,40.68977252409315,-73.99933690756927,COVID-19 Closure,Completely Locked
Fairmount Playground,pg,X,2020-05-21 11:10:24,40.84277947555324,-73.88958619702956,Active,Not Lockable
Ethan Allen Playground,pg,B,2020-05-21 11:06:52,40.65585629660202,-73.88682379786808,COVID-19 Closure,Completely Locked
Wallenberg Plgd,pg,M,2020-05-21 11:07:11,40.852672931483994,-73.92717173043279,COVID-19 Closure,Completely Locked
Duke Park,pg,B,2020-05-21 11:06:56,40.666831592693555,-73.89319536761441,COVID-19 Closure,Completely Locked
Delphin H. Greene Playground,pg,Q,2020-05-21 11:08:45,40.68440268739723,-73.72908520897744,COVID-19 Closure,Partially Locked
Saratoga Park,pg,B,2020-05-21 11:05:51,40.68492754140526,-73.91945241952247,COVID-19 Closure,Partially Locked
Dimattina Playground,pg,B,2020-05-21 11:06:13,40.68067240893318,-74.0019586865852,COVID-19 Closure,Completely Locked
Gerard P. Dugan Playground,pg,R,2020-05-21 11:09:17,40.561870488543725,-74.11141881136726,COVID-19 Closure,Completely Locked
Clove Lakes Park Plgd,pg,R,2020-05-21 11:09:14,40.618516259027594,-74.10601678178902,COVID-19 Closure,Completely Locked
Murray Hill Playground,pg,Q,2020-05-21 11:09:10,40.761493321030855,-73.81181034154777,COVID-19 Closure,Partially Locked
DeKovats Playground,pg,M,2020-05-21 11:07:54,40.77943233524202,-73.94413860589499,COVID-19 Closure,Partially Locked
"""Uncle"" Vito F. Maranzano Glendale Playground",pg,Q,2020-05-21 11:08:38,40.70469379501874,-73.88172968853043,COVID-19 Closure,Completely Locked
Mercer Playground,pg,M,2020-05-21 11:10:25,40.72758662037959,-73.99623838403843,COVID-19 Closure,Completely Locked
Bridge Playground,pg,X,2020-05-21 11:10:28,40.84431258099142,-73.92412118457847,COVID-19 Closure,Not Lockable
Washington Square Park,pg,M,2020-05-21 11:07:26,40.730768720507385,-73.9966432313342,COVID-19 Closure,Completely Locked
Tottenville Pool,pg,R,2020-05-21 11:09:28,40.50567017428926,-74.23587801945042,COVID-19 Closure,Completely Locked
Emerald Playground,pg,Q,2020-05-21 11:08:52,40.730732919560374,-73.80600851773762,COVID-19 Closure,Partially Locked
Mohegan Triangle,pg,X,2020-05-21 11:10:16,40.84424426631618,-73.88477065669697,COVID-19 Closure,Completely Locked
Corlears Hook Park,pg,M,2020-05-21 04:43:40,40.71142093345,-73.97940199593296,COVID-19 Closure,Partially Locked
Beach at B 6 St,pg,B,2020-05-21 11:10:34,40.574897171203865,-73.96097181236343,COVID-19 Closure,Completely Locked
Dry Dock Playground,pg,M,2020-05-21 11:07:52,40.725601422821526,-73.97540213966661,COVID-19 Closure,Completely Locked
Van Cortlandt Classic Plgd,pg,X,2020-05-21 11:09:44,40.885210581173624,-73.89038886968163,COVID-19 Closure,Completely Locked
Lily Brown Playground,pg,M,2020-05-21 11:07:09,40.83886143076844,-73.94613870402596,COVID-19 Closure,Completely Locked
100% Playground,pg,B,2020-05-21 11:06:50,40.64681791074553,-73.89938091179671,COVID-19 Closure,Completely Locked
Hull Triangle,pg,Q,2020-05-21 11:08:56,40.72541920402693,-73.90147376457578,COVID-19 Closure,Completely Locked
Lefferts Playground,pg,Q,2020-05-21 11:08:17,40.665473306226495,-73.821304148219,COVID-19 Closure,Completely Locked
Matthews Muliner Playground,pg,X,2020-05-21 11:10:02,40.847022155975885,-73.86156191742903,COVID-19 Closure,Completely Locked
Sol Lain Plgd,pg,M,2020-05-21 11:07:46,40.71412703257847,-73.98413844911565,COVID-19 Closure,Completely Locked
Col. Young Playground,pg,M,2020-05-21 11:07:36,40.81941291766271,-73.93641694511166,COVID-19 Closure,Partially Locked
Jesse Owens Playground,pg,B,2020-05-21 11:06:30,40.6918290566779,-73.93213627502202,COVID-19 Closure,Completely Locked
Homecrest Playground,pg,B,2020-05-21 11:06:05,40.58648701553224,-73.95754081736746,COVID-19 Closure,Completely Locked
Payson Plgd,pg,M,2020-05-21 11:07:13,40.86717442535105,-73.92871138133974,COVID-19 Closure,Completely Locked
Adventure Playground,pg,M,2020-05-21 11:07:03,40.77327447038719,-73.97752128283793,COVID-19 Closure,Completely Locked
DiGilio Playground,pg,B,2020-05-21 11:06:44,40.632912293151854,-73.977267648536,COVID-19 Closure,Completely Locked
Ericsson Playground,pg,B,2020-05-21 11:10:21,40.72052284563283,-73.94843405310336,COVID-19 Closure,Completely Locked
Rosemary's Playground,pg,Q,2020-05-21 11:09:04,40.704352162266346,-73.90422986323608,COVID-19 Closure,Completely Locked
Thomas Greene Playground,pg,B,2020-05-21 01:10:13,40.680216518338575,-73.98477659063772,COVID-19 Closure,Completely Locked
Freedom Square Playground,pg,Q,2020-05-21 11:08:59,40.72317338225227,-73.82023746915814,COVID-19 Closure,Completely Locked
Pulaski Park,pg,X,2020-05-21 11:09:41,40.80500512520375,-73.92395816736641,COVID-19 Closure,Partially Locked
Calvert Vaux Park Playground,pg,B,2020-05-21 11:05:56,40.587878229135235,-73.99063163599682,COVID-19 Closure,Completely Locked
Rockaway Blvd Playground,pg,Q,2020-05-21 11:08:00,40.672634712833506,-73.78770861906663,COVID-19 Closure,Not Lockable
Breininger Park,pg,Q,2020-05-21 11:08:31,40.726342737695056,-73.72901207063231,COVID-19 Closure,Not Lockable
Harris Playground,pg,X,2020-05-21 11:09:52,40.87507751176841,-73.89229182740533,COVID-19 Closure,Partially Locked
Greene Playground,pg,B,2020-05-21 11:06:37,40.686363214467626,-73.96576227442777,COVID-19 Closure,Completely Locked
Galapo Playground,pg,B,2020-05-21 11:06:07,40.59797611736224,-73.94676716908707,COVID-19 Closure,Completely Locked
Vernon Playground,pg,Q,2020-05-21 11:08:23,40.75708598666196,-73.94696057990416,COVID-19 Closure,Completely Locked
Playground of the Americas,pg,M,2020-05-21 11:07:30,40.72799147943754,-74.00273182209905,COVID-19 Closure,Completely Locked
Thomas J. Cuite Park,pg,B,2020-05-21 11:06:24,40.654349007841006,-73.97874089051851,COVID-19 Closure,Completely Locked
Brust Park,pg,X,2020-05-21 11:09:43,40.889943181518575,-73.90513359900662,COVID-19 Closure,Not Lockable
Canarsie Playground,pg,B,2020-05-21 01:15:38,40.62674944756477,-73.89951738597661,COVID-19 Closure,Completely Locked
Travers Park,pg,Q,2020-05-21 11:08:44,40.754295682039576,-73.88925236886888,COVID-19 Closure,Partially Locked
Sheepshead Playground,pg,B,2020-05-21 11:06:19,40.588950813890285,-73.94004809063274,COVID-19 Closure,Completely Locked
Yak Playground,pg,B,2020-05-21 11:10:20,40.592253322422835,-73.93647236619319,COVID-19 Closure,Completely Locked
Herbert Von King Park,pg,B,2020-05-21 12:52:58,40.68955149913746,-73.94588462732864,COVID-19 Closure,Completely Locked
Story Playground,pg,X,2020-05-21 11:10:05,40.82299728387451,-73.86268164098175,COVID-19 Closure,Completely Locked
Moore Playground,pg,M,2020-05-21 11:07:41,40.80951407264196,-73.93842163821196,COVID-19 Closure,Completely Locked
Carnegie Plgd,pg,B,2020-05-21 11:05:41,40.715961714209335,-73.93740729300777,COVID-19 Closure,Completely Locked
Mariners Harbor Playground,pg,R,2020-05-21 11:09:19,40.63660239241062,-74.16047836121987,COVID-19 Closure,Completely Locked
Houston Playground,pg,B,2020-05-21 11:06:56,40.672163418147875,-73.90510802952913,COVID-19 Closure,Completely Locked
Jaime Campiz Playground,pg,B,2020-05-21 11:06:15,40.7137297916574,-73.95420923682777,COVID-19 Closure,Completely Locked
Bowne Playground,pg,Q,2020-05-21 11:08:45,40.758000548629745,-73.82468364765003,COVID-19 Closure,Completely Locked
Spirit Playground,pg,Q,2020-05-21 11:09:09,40.761217631730304,-73.94124714774448,COVID-19 Closure,Completely Locked
Plimpton Playground,pg,X,2020-05-21 11:09:53,40.84394090683236,-73.92246746319363,COVID-19 Closure,Completely Locked
Playground For All Children,pg,X,2020-05-21 11:09:39,40.84874823876228,-73.82549377615165,COVID-19 Closure,Completely Locked
Mahoney Playground,pg,R,2020-05-21 11:09:17,40.643196248871476,-74.08539886806311,COVID-19 Closure,Completely Locked
Nathan Weidenbaum Playground,pg,Q,2020-05-21 11:08:35,40.738169440767614,-73.90243687829776,COVID-19 Closure,Completely Locked
Morris Garden,pg,X,2020-05-21 11:10:13,40.85463227135476,-73.90378760575753,COVID-19 Closure,Completely Locked
St. Mark's Playground,pg,B,2020-05-21 11:10:30,40.67467549089456,-73.9401837154714,COVID-19 Closure,Not Lockable
Grove Hill Playground,pg,X,2020-05-21 11:10:09,40.819959462861476,-73.90876665113332,COVID-19 Closure,Completely Locked
Classon Playground,pg,B,2020-05-21 11:10:26,40.69907078863519,-73.96206992891585,COVID-19 Closure,Completely Locked
Drew Playground,pg,X,2020-05-21 11:09:36,40.83316416757643,-73.90313138538562,COVID-19 Closure,Completely Locked
Daniel M. O'Connell Playground,pg,Q,2020-05-21 11:08:24,40.70033447169981,-73.758313143391,COVID-19 Closure,Not Lockable
Schmul Park,pg,R,2020-05-21 11:09:19,40.59005334565699,-74.188122960463,COVID-19 Closure,Completely Locked
General Hart Playground,pg,Q,2020-05-21 11:08:14,40.74878845364598,-73.89746832776348,COVID-19 Closure,Completely Locked
Noble Playground,pg,X,2020-05-21 11:09:51,40.836893291957935,-73.87185040568932,COVID-19 Closure,Completely Locked
Epiphany Playground,pg,B,2020-05-21 11:07:01,40.7087118662659,-73.96559281314111,COVID-19 Closure,Completely Locked
Century Playground,pg,B,2020-05-21 11:06:48,40.576739860660666,-73.9700624450879,COVID-19 Closure,Completely Locked
Wagner Playground,pg,M,2020-05-21 11:10:19,40.79977400168664,-73.9349215156647,COVID-19 Closure,Completely Locked
Augustus St. Gaudens Playground,pg,M,2020-05-21 11:07:45,40.735487279844556,-73.98216957176686,COVID-19 Closure,Completely Locked
Playground One Forty,pg,Q,2020-05-21 11:08:36,40.67492509565238,-73.80117838240443,COVID-19 Closure,Not Lockable
Athens Square,pg,Q,2020-05-21 11:09:10,40.76791472190316,-73.92219042215703,COVID-19 Closure,Completely Locked
Real Good Playground,pg,Q,2020-05-21 11:08:56,40.73549538538763,-73.8575372503597,COVID-19 Closure,Completely Locked
Asser Levy Playground,pg,M,2020-05-21 11:07:35,40.736513478668556,-73.97552201938034,COVID-19 Closure,Partially Locked
Summit Playground,pg,X,2020-05-21 11:09:37,40.83070373138211,-73.93157136206523,COVID-19 Closure,Completely Locked
Hester St Plgd,pg,M,2020-05-21 11:07:27,40.71712068578489,-73.99392778832083,COVID-19 Closure,Completely Locked
Skyline Playground,pg,R,2020-05-21 11:09:28,40.63912340995157,-74.08980016118103,COVID-19 Closure,Completely Locked
Triassic Playground,pg,Q,2020-05-21 11:08:17,40.7299816273106,-73.8350918923636,COVID-19 Closure,Completely Locked
Bayview Playground,pg,B,2020-05-21 11:06:32,40.63480442292914,-73.88740121248914,COVID-19 Closure,Completely Locked
Angelo Campanaro Plgd,pg,X,2020-05-21 11:10:02,40.86800752267808,-73.84209888449536,COVID-19 Closure,Partially Locked
Metcalf Playground,pg,X,2020-05-21 11:09:32,40.83462765512788,-73.87359917164187,COVID-19 Closure,Completely Locked
Edenwald Playground,pg,X,2020-05-21 11:09:59,40.88393161222554,-73.84517577483462,COVID-19 Closure,Partially Locked
210 St Playground,pg,Q,2020-05-21 11:08:08,40.739294685317546,-73.76531586443619,COVID-19 Closure,Partially Locked
City Line Park,pg,B,2020-05-21 01:02:27,40.67888626993225,-73.87403261797333,COVID-19 Closure,Completely Locked
Maria Hernandez Park Playground,pg,B,2020-05-21 12:57:37,40.7027729266613,-73.9242162230744,COVID-19 Closure,Completely Locked
Centreville Playground,pg,Q,2020-05-21 11:09:02,40.670196800720134,-73.83934619143606,COVID-19 Closure,Completely Locked
East River Playground,pg,M,2020-05-21 11:07:51,40.789179753233,-73.93791758069295,COVID-19 Closure,Completely Locked
Ten Eyck Playground,pg,B,2020-05-21 11:06:43,40.7089001649567,-73.93856109945462,COVID-19 Closure,Completely Locked
MacLaughlin Playground,pg,X,2020-05-21 11:10:09,40.88785470411853,-73.90536585971063,COVID-19 Closure,Completely Locked
Playground Sixty Two LXII,pg,Q,2020-05-21 11:09:00,40.736204163491195,-73.85244195731984,COVID-19 Closure,Completely Locked
Sledge Playground,pg,B,2020-05-21 11:05:53,40.63820717958936,-73.89790018874504,COVID-19 Closure,Completely Locked
Luna Playground,pg,B,2020-05-21 11:06:37,40.576200823091895,-73.97912259153284,COVID-19 Closure,Completely Locked
Adam Yauch Park,pg,B,2020-05-21 11:06:13,40.69197830282726,-73.99867988890037,COVID-19 Closure,Completely Locked
Middle Village Playground,pg,Q,2020-05-21 11:08:21,40.71028217688905,-73.87369815569612,COVID-19 Closure,Completely Locked
St. Nicholas Playground South,pg,M,2020-05-21 11:07:42,40.810840272788965,-73.94743122725458,COVID-19 Closure,Partially Locked
Vanderbilt Playground,pg,B,2020-05-21 11:05:49,40.6550493845689,-73.97295764461757,COVID-19 Closure,Completely Locked
Jacob's Ladder Playground,pg,B,2020-05-21 11:06:57,40.70485365426409,-73.96673279413864,COVID-19 Closure,Completely Locked
Virginia Playground,pg,X,2020-05-21 11:09:54,40.83425907457426,-73.8622486068605,COVID-19 Closure,Completely Locked
Russell Sage Playground,pg,Q,2020-05-21 11:08:50,40.72413886784009,-73.85156664976046,COVID-19 Closure,Completely Locked
Marcus Garvey Memorial Park,pg,M,2020-05-21 11:07:16,40.805353115737425,-73.94223861618026,COVID-19 Closure,Completely Locked
Carlton Park,pg,R,2020-05-21 11:09:20,40.53334176012093,-74.20224650915591,COVID-19 Closure,Completely Locked
Little Flower Playground,pg,M,2020-05-21 11:07:32,40.71254122998289,-73.98846825622478,COVID-19 Closure,Completely Locked
Dr. Green Playground,pg,B,2020-05-21 11:06:17,40.667275445539104,-73.90791293809164,COVID-19 Closure,Partially Locked
Morningside Plgd,pg,M,2020-05-21 11:07:15,40.80703881402159,-73.95775646753451,COVID-19 Closure,Completely Locked
West 100th St Plgd,pg,M,2020-05-21 11:07:05,40.793815534987296,-73.96266523056595,COVID-19 Closure,Completely Locked
Devoe Park,pg,X,2020-05-21 11:09:35,40.86395953944005,-73.90464042034074,COVID-19 Closure,Completely Locked
Corporal Allan F. Kivlehan Park,pg,R,2020-05-21 11:09:16,40.56385302486341,-74.09771657412561,COVID-19 Closure,Completely Locked
Lion's Pride Playground,pg,B,2020-05-21 11:05:55,40.66270488916968,-73.89953097146653,COVID-19 Closure,Completely Locked
Jerome Playground,pg,B,2020-05-21 11:06:20,40.65902437404547,-73.87939357698806,COVID-19 Closure,Completely Locked
Beach 9 Playground,pg,Q,2020-05-21 11:08:33,40.59581233940668,-73.7446000207849,COVID-19 Closure,Partially Locked
Sedgwick Playground,pg,X,2020-05-21 11:09:57,40.84573614359706,-73.92329965295082,COVID-19 Closure,Not Lockable
De Hostos Playground,pg,B,2020-05-21 11:06:54,40.70249409867389,-73.94924389904435,COVID-19 Closure,Completely Locked
Judge Moses Weinstein Playground,pg,Q,2020-05-21 11:08:50,40.718669843866664,-73.82066578668989,COVID-19 Closure,Partially Locked
Abigail Playground,pg,X,2020-05-21 11:10:07,40.81739773582473,-73.90469490994606,COVID-19 Closure,Completely Locked
Mazzei Playground,pg,X,2020-05-21 11:09:57,40.86233210058629,-73.85811059617457,COVID-19 Closure,Partially Locked
St Nicholas,pg,M,2020-05-21 11:07:22,40.813667511014955,-73.95088245116692,COVID-19 Closure,Partially Locked
Lincoln Terrace Park / Arthur S. Somers Playground,pg,B,2020-05-21 11:05:45,40.66644608010243,-73.92796378287865,COVID-19 Closure,Partially Locked
Playground Eighty LXXX,pg,Q,2020-05-21 11:08:46,40.74496467544943,-73.70961300996181,COVID-19 Closure,Partially Locked
McKinley Park Playground,pg,B,2020-05-21 11:05:47,40.62654177368077,-74.01711545064619,COVID-19 Closure,Not Lockable
Spuyten Duyvil Playground,pg,X,2020-05-21 11:10:00,40.887192889936735,-73.91641639918946,COVID-19 Closure,Completely Locked
French Charley Plgd,pg,X,2020-05-21 11:09:31,40.8699379464205,-73.87626315712627,COVID-19 Closure,Completely Locked
Playground 146,pg,Q,2020-05-21 11:08:42,40.74616428652613,-73.82120600911203,COVID-19 Closure,Completely Locked
John J Carty Park,pg,B,2020-05-21 11:10:37,40.61452204948031,-74.0292295485995,COVID-19 Closure,Partially Locked
Dongan Playground,pg,R,2020-05-21 11:09:25,40.58307234281071,-74.08974648257426,COVID-19 Closure,Partially Locked
Howard Playground,pg,B,2020-05-21 11:06:26,40.67172259832273,-73.90773266195724,COVID-19 Closure,Completely Locked
Laurelton Parkway West Playground,pg,Q,2020-05-21 11:08:09,40.68543801429549,-73.72681290439733,COVID-19 Closure,Completely Locked
Greenhouse Playground,pg,Q,2020-05-21 11:08:04,40.701273103439384,-73.85604167409724,COVID-19 Closure,Completely Locked
136 St Playground,pg,Q,2020-05-21 11:09:11,40.784843589950796,-73.83304461490502,COVID-19 Closure,Not Lockable
Fox Playground,pg,X,2020-05-21 11:10:10,40.814968131501395,-73.89859103760783,COVID-19 Closure,Completely Locked
Kossuth Plgd,pg,X,2020-05-21 11:09:37,40.87790359061962,-73.88281458051813,COVID-19 Closure,Completely Locked
Fort Totten Playground,pg,Q,2020-05-21 11:09:13,40.79405741666456,-73.77800386329217,COVID-19 Closure,Partially Locked
Silver Lake Park Playground,pg,R,2020-05-21 11:09:17,40.62817279151438,-74.09881873232297,COVID-19 Closure,Not Lockable
Prospect Park (2),pg,X,2020-05-21 11:09:34,40.84042651928056,-73.89170472588789,COVID-19 Closure,Not Lockable
Beach 17 Playground,pg,Q,2020-05-21 11:08:33,40.59471578139273,-73.74980723917025,COVID-19 Closure,Completely Locked
Midland Field,pg,R,2020-05-21 11:10:35,40.576557154195186,-74.09922504840623,COVID-19 Closure,Completely Locked
Brizzi Playground,pg,B,2020-05-21 11:06:03,40.64229256839283,-73.99453018815225,COVID-19 Closure,Completely Locked
Aqueduct Lands Plgd,pg,X,2020-05-21 11:09:31,40.857454144836076,-73.90881419352682,COVID-19 Closure,Completely Locked
Printers Park,pg,X,2020-05-21 11:10:13,40.82412580473221,-73.89074240892846,COVID-19 Closure,Completely Locked
Playground Seventy Five,pg,Q,2020-05-21 11:08:55,40.72641898800259,-73.80836068489103,COVID-19 Closure,Completely Locked
The Pearly Gates,pg,X,2020-05-21 11:10:00,40.83859644915696,-73.84556077046427,COVID-19 Closure,Completely Locked
Rufus King Park Playground,pg,Q,2020-05-21 11:08:08,40.70390227422405,-73.80336821111237,COVID-19 Closure,Not Lockable
Heckscher Playground,pg,B,2020-05-21 11:05:58,40.694866475393574,-73.9185266176717,COVID-19 Closure,Completely Locked
Westbourne Playground,pg,Q,2020-05-21 11:08:38,40.60845410832932,-73.7648708403608,COVID-19 Closure,Completely Locked
Berriman Playground,pg,B,2020-05-21 11:10:21,40.656840370970976,-73.86947701605501,COVID-19 Closure,Completely Locked
Great Kills Veterans Playground,pg,R,2020-05-21 11:09:23,40.546904866889186,-74.15162739845856,COVID-19 Closure,Partially Locked
Sobelsohn Park,pg,Q,2020-05-21 11:08:03,40.7095355541116,-73.83597799420569,COVID-19 Closure,Partially Locked
Arlington Edinboro Playground,pg,M,2020-05-21 11:07:21,40.820646850203865,-73.9467791341592,COVID-19 Closure,Partially Locked
Alley Springfield Playground,pg,Q,2020-05-21 11:07:58,40.741521573077385,-73.74881668635344,COVID-19 Closure,Completely Locked
Lindower Park Playground,pg,B,2020-05-21 11:06:47,40.612390179302956,-73.91119189475756,COVID-19 Closure,Completely Locked
Mt Prospect Park Playground,pg,B,2020-05-21 11:06:03,40.672090477679674,-73.96608484505705,COVID-19 Closure,Not Lockable
Gouverneur Playground,pg,X,2020-05-21 11:10:09,40.83600234126457,-73.90328826120341,COVID-19 Closure,Completely Locked
Fort #4 Playground,pg,X,2020-05-21 11:09:39,40.874430741368045,-73.90110723728873,COVID-19 Closure,Completely Locked
Green Central Knoll,pg,B,2020-05-21 11:51:40,40.70249062850898,-73.9332102807522,COVID-19 Closure,Completely Locked
Hickman Playground,pg,B,2020-05-21 11:06:47,40.62019061662257,-73.91210424772639,COVID-19 Closure,Completely Locked
Grassmere Playground,pg,Q,2020-05-21 11:08:55,40.59952583513948,-73.75927441712919,COVID-19 Closure,Partially Locked
Devoe Park,pg,X,2020-05-21 11:09:35,40.86315850486025,-73.90780805719162,COVID-19 Closure,Completely Locked
Playground Ninety,pg,Q,2020-05-21 11:08:58,40.757537756487174,-73.87859693257602,COVID-19 Closure,Partially Locked
MacNeil Playground,pg,Q,2020-05-21 11:08:01,40.793337138932976,-73.85113093392734,COVID-19 Closure,Partially Locked
Captain Rivera Playground,pg,X,2020-05-21 11:10:03,40.81813667115741,-73.90701872832344,COVID-19 Closure,Partially Locked
Poor Richard's Playground,pg,M,2020-05-21 11:07:45,40.793125478251845,-73.94312925707106,COVID-19 Closure,Completely Locked
Pulaski Playground,pg,B,2020-05-21 11:06:46,40.69346683108732,-73.94212638953422,COVID-19 Closure,Completely Locked
Rochdale Park Playground,pg,Q,2020-05-21 11:09:07,40.6741779997591,-73.77531935199531,COVID-19 Closure,Partially Locked
Mellett Playground,pg,B,2020-05-21 11:06:06,40.59725648925278,-73.95733950543395,COVID-19 Closure,Completely Locked
Holy Cow Playground,pg,Q,2020-05-21 11:08:41,40.74118837025069,-73.77623262469093,COVID-19 Closure,Partially Locked
Decatur Playground,pg,B,2020-05-21 11:06:10,40.68139809214805,-73.9367617762036,COVID-19 Closure,Completely Locked
Heckscher Plgd,pg,M,2020-05-21 11:07:02,40.768626553726456,-73.97729696782677,COVID-19 Closure,Completely Locked
Pratt Playground,pg,B,2020-05-21 11:06:36,40.692520856698415,-73.96249850529055,COVID-19 Closure,Completely Locked
Brower Park,pg,B,2020-05-21 11:05:39,40.67416409941256,-73.94319412944296,COVID-19 Closure,Completely Locked
Curtis Playground,pg,B,2020-05-21 11:06:53,40.640976520387,-73.91736295601812,COVID-19 Closure,Completely Locked
Monsignor Mcgolrick Playground,pg,B,2020-05-21 11:05:56,40.72526513474084,-73.94355865987986,COVID-19 Closure,Completely Locked
Old Hickory Playground,pg,Q,2020-05-21 11:09:14,40.74175309647464,-73.95355351987043,COVID-19 Closure,Completely Locked
Seba Playground,pg,B,2020-05-21 01:50:51,40.589231188161264,-73.92030019627312,COVID-19 Closure,Completely Locked
Nostrand Playground,pg,B,2020-05-21 11:06:22,40.638401193800014,-73.94782875835836,COVID-19 Closure,Completely Locked
Ditmars Playground,pg,Q,2020-05-21 11:09:02,40.771373845290626,-73.907434959676,COVID-19 Closure,Completely Locked
Andries Playground,pg,B,2020-05-21 11:10:27,40.62283326105003,-73.94645526094929,COVID-19 Closure,Completely Locked
Seabury Playground,pg,X,2020-05-21 11:10:25,40.83648824442089,-73.88787060431027,COVID-19 Closure,Completely Locked
Cherry Tree Park,pg,M,2020-05-21 11:07:43,40.78722837088255,-73.94748026436802,COVID-19 Closure,Completely Locked
Pontiac Playground,pg,X,2020-05-21 11:10:05,40.81441376280837,-73.90835105941449,COVID-19 Closure,Completely Locked
Albemarle Playground,pg,B,2020-05-21 11:06:37,40.645903835347156,-73.98035508344434,COVID-19 Closure,Completely Locked
Albert H. Mauro Playground,pg,Q,2020-05-21 11:08:20,40.72260401773191,-73.8269710252968,COVID-19 Closure,Completely Locked
Torsney Playground,pg,Q,2020-05-21 11:08:51,40.74735782167306,-73.92251112139127,COVID-19 Closure,Completely Locked
Walker Park,pg,R,2020-05-21 11:09:16,40.64367036443326,-74.11044737788369,COVID-19 Closure,Completely Locked
Harding Park,pg,X,2020-05-21 11:10:11,40.809774781117966,-73.8566670891194,COVID-19 Closure,Completely Locked
NYHMC Playground,pg,Q,2020-05-21 11:08:43,40.7484648646747,-73.82546753252855,COVID-19 Closure,Completely Locked
Golconda Playground,pg,B,2020-05-21 11:06:19,40.69771785742067,-73.9827097749947,COVID-19 Closure,Completely Locked
St Mary's Playground West,pg,X,2020-05-21 11:09:42,40.81280584042627,-73.91287624303331,COVID-19 Closure,Partially Locked
Annadale Playground,pg,Q,2020-05-21 11:08:46,40.731132384440635,-73.85157396572987,COVID-19 Closure,Completely Locked
Playground 123,pg,M,2020-05-21 11:07:15,40.809960536126546,-73.95608969094445,COVID-19 Closure,Completely Locked
East River Playground,pg,M,2020-05-21 11:07:33,40.724278136830506,-73.97265758054068,COVID-19 Closure,Completely Locked
Underhill Playground,pg,Q,2020-05-21 11:08:42,40.74478630033872,-73.78789747278,COVID-19 Closure,Partially Locked
Willowbrook (Carousel) Adventure Station,pg,R,2020-05-21 11:09:22,40.60313905662303,-74.158018438054,COVID-19 Closure,Not Lockable
Century Playground,pg,B,2020-05-21 11:06:49,40.57716991649818,-73.97115583360859,COVID-19 Closure,Completely Locked
Stebbins Playground,pg,X,2020-05-21 11:10:28,40.822767330766645,-73.89851728719871,COVID-19 Closure,Partially Locked
Melrose Playground,pg,X,2020-05-21 11:09:56,40.82044315521294,-73.91814726553423,COVID-19 Closure,Completely Locked
Colucci Playground,pg,X,2020-05-21 11:09:51,40.85223423158884,-73.83507514554663,COVID-19 Closure,Partially Locked
Kennedy King Playground,pg,B,2020-05-21 11:06:38,40.658379050984294,-73.92201053539482,COVID-19 Closure,Completely Locked
110th St Plgd,pg,M,2020-05-21 11:07:06,40.799783354605296,-73.95704423078804,COVID-19 Closure,Completely Locked
Barrier Playground,pg,Q,2020-05-21 11:10:26,40.73626992174455,-73.8549336173634,COVID-19 Closure,Completely Locked
Black Rock Playground,pg,X,2020-05-21 11:10:05,40.82837175323094,-73.85801036487362,COVID-19 Closure,Completely Locked
McGuire Fields Tot Lot,pg,B,2020-05-21 11:06:05,40.62002345785997,-73.89919497759543,COVID-19 Closure,Completely Locked
Astoria Health Playground,pg,Q,2020-05-21 11:08:27,40.76797798915183,-73.9327095184499,COVID-19 Closure,Completely Locked
Carter Plgd (7),pg,X,2020-05-21 11:09:34,40.83690050596134,-73.89445982148537,COVID-19 Closure,Not Lockable
Potomac Playground,pg,B,2020-05-21 11:06:26,40.681956902931184,-73.944052819326,COVID-19 Closure,Completely Locked
Dr. Ronald E. McNair Playground,pg,M,2020-05-21 11:07:54,40.802674888284784,-73.93798001089854,COVID-19 Closure,Completely Locked
Jurassic Playground,pg,Q,2020-05-21 11:08:18,40.73527085222184,-73.84369483382643,COVID-19 Closure,Completely Locked
Lopez Playground,pg,R,2020-05-21 11:09:30,40.61151384677659,-74.08491831812051,COVID-19 Closure,Completely Locked
Poe Park,pg,X,2020-05-21 11:09:41,40.864805210590106,-73.89452048501973,COVID-19 Closure,Not Lockable
Cardozo Playground,pg,Q,2020-05-21 11:09:02,40.59375648470952,-73.78661798375475,COVID-19 Closure,Completely Locked
Beanstalk Playground,pg,X,2020-05-21 11:10:13,40.85388249124289,-73.91676317184424,COVID-19 Closure,Completely Locked
Fred Samuel Playground,pg,M,2020-05-21 11:07:34,40.81729717824485,-73.9392601344391,COVID-19 Closure,Completely Locked
St. Andrew's Playground,pg,B,2020-05-21 11:06:16,40.67898957307721,-73.94170461270342,COVID-19 Closure,Completely Locked
Frost Playground,pg,B,2020-05-21 11:06:25,40.71868533333982,-73.93924066197896,COVID-19 Closure,Partially Locked
Starr Playground,pg,Q,2020-05-21 11:08:39,40.70994074790033,-73.91769248314911,COVID-19 Closure,Completely Locked
Clark Playground,pg,X,2020-05-21 11:10:04,40.81367664284984,-73.92142728973751,COVID-19 Closure,Completely Locked
Yellowstone Park,pg,Q,2020-05-21 11:09:08,40.726169539680456,-73.8479286680021,COVID-19 Closure,Completely Locked
Palisades Playground,pg,M,2020-05-21 11:07:21,40.829055965623226,-73.95063454749473,COVID-19 Closure,Completely Locked
P.S. 155 Playground,pg,M,2020-05-21 11:07:48,40.797376709451335,-73.93521856410459,COVID-19 Closure,Completely Locked
Giovanelli Playground,pg,Q,2020-05-21 11:08:05,40.69891355398081,-73.84761201169628,COVID-19 Closure,Completely Locked
Marc And Jason's Playground,pg,B,2020-05-21 11:06:35,40.66351937712341,-73.94999585722665,COVID-19 Closure,Completely Locked
Vidalia Park,pg,X,2020-05-21 11:10:11,40.844251995656776,-73.88150371459481,COVID-19 Closure,Completely Locked
Pat Williams Playground,pg,Q,2020-05-21 11:08:30,40.71292589875154,-73.72954832402824,COVID-19 Closure,Completely Locked
Hoyt Playground,pg,Q,2020-05-21 11:08:14,40.77181929430339,-73.9171429413383,COVID-19 Closure,Completely Locked
East Flatbush Children's Playground,pg,B,2020-05-21 11:07:00,40.663244954498914,-73.92699383493535,COVID-19 Closure,Completely Locked
Sophie Irene Loeb,pg,M,2020-05-21 11:07:17,40.7132593794185,-73.99431292062546,COVID-19 Closure,Completely Locked
Imagination Playground,pg,M,2020-05-21 11:07:57,40.706353579840496,-74.00431963933136,COVID-19 Closure,Completely Locked
Quisqueya Plgd,pg,M,2020-05-21 11:07:11,40.84712948452067,-73.93117079882025,COVID-19 Closure,Completely Locked
Beach 30th Street Playground,pg,Q,2020-05-21 11:08:33,40.592558188510566,-73.76165240545369,COVID-19 Closure,Partially Locked
Wilson Playground,pg,B,2020-05-21 11:06:34,40.643232952172745,-73.89524581539555,COVID-19 Closure,Completely Locked
Sunrise Playground,pg,Q,2020-05-21 11:09:09,40.65252715775223,-73.7364998171036,COVID-19 Closure,Completely Locked
Battery Park City,pg,M,2020-05-21 11:07:53,40.7120190525531,-74.01724590525377,COVID-19 Closure,Completely Locked
Cuyler Gore Park,pg,B,2020-05-21 11:05:42,40.685553348056104,-73.97190239735743,COVID-19 Closure,Completely Locked
Wolfe's Pond Park,pg,R,2020-05-21 11:09:18,40.518452287048994,-74.18736008015838,COVID-19 Closure,Completely Locked
Martin Van Buren Plgd,pg,X,2020-05-21 11:09:35,40.83539982169567,-73.89588615149655,COVID-19 Closure,Not Lockable
Upper Highland Playground,pg,Q,2020-05-21 11:08:06,40.682842781923604,-73.89270636942929,COVID-19 Closure,Partially Locked
Diana Ross Plgd,pg,M,2020-05-21 11:07:04,40.782260974513115,-73.97098713116348,COVID-19 Closure,Completely Locked
Penn South Playground,pg,M,2020-05-21 11:07:50,40.74754036746535,-73.9984111391741,COVID-19 Closure,Completely Locked
Ranaqua Playground,pg,X,2020-05-21 11:10:12,40.80682346455027,-73.92207065897992,COVID-19 Closure,Completely Locked
Tilden Playground,pg,B,2020-05-21 11:06:18,40.647755128821366,-73.9312076322319,COVID-19 Closure,Completely Locked
Sean's Place,pg,Q,2020-05-21 11:09:11,40.760594208732876,-73.9184638537646,COVID-19 Closure,Completely Locked
Washington Square Park,pg,M,2020-05-21 11:07:26,40.73151998864316,-73.9975821649935,COVID-19 Closure,Completely Locked
Bush Clinton Park,pg,B,2020-05-21 11:05:56,40.673406613624635,-74.0028222141419,COVID-19 Closure,Completely Locked
Carroll Park,pg,B,2020-05-21 11:05:40,40.68090839672174,-73.99504243744451,COVID-19 Closure,Completely Locked
Rienzi Playground,pg,X,2020-05-21 11:09:52,40.887679912744055,-73.85888049182688,COVID-19 Closure,Completely Locked
Abraham Lincoln Playground,pg,M,2020-05-21 11:07:37,40.81199565613204,-73.93684127307434,COVID-19 Closure,Completely Locked
Columbus Park,pg,M,2020-05-21 11:07:07,40.71458535943502,-74.00003191719968,COVID-19 Closure,Partially Locked
Imagination Plgd,pg,B,2020-05-21 11:05:50,40.65861003719584,-73.9629698683553,COVID-19 Closure,Completely Locked
Bellerose Playground,pg,Q,2020-05-21 11:08:49,40.73302379070022,-73.71783327875168,COVID-19 Closure,Completely Locked
Fields of Dream Park,pg,X,2020-05-21 11:10:35,40.82658400095693,-73.89228216705226,COVID-19 Closure,Not Lockable
Henry Hudson Pk (North),pg,X,2020-05-21 11:09:43,40.88219256732063,-73.91799628723578,COVID-19 Closure,Not Lockable
Fort Greene Plgd,pg,B,2020-05-21 11:05:42,40.69242410079461,-73.97699429609567,COVID-19 Closure,Completely Locked
Redfern Playground,pg,Q,2020-05-21 11:08:52,40.61096859632198,-73.74934692193898,COVID-19 Closure,Completely Locked
Barretto Point Park,pg,X,2020-05-21 11:10:16,40.80599891349106,-73.88796900643172,COVID-19 Closure,Not Lockable
Rockaway Community Playground,pg,Q,2020-05-21 11:08:59,40.598408509049484,-73.78463332936178,COVID-19 Closure,Completely Locked
Goble Playground,pg,X,2020-05-21 11:09:49,40.84378131675461,-73.91720394566426,COVID-19 Closure,Not Lockable
Frederick Douglass Playground,pg,M,2020-05-21 11:07:45,40.79677855430034,-73.96797475158785,COVID-19 Closure,Partially Locked
Rodney Playground Center,pg,B,2020-05-21 11:10:20,40.710255830302366,-73.95557068367589,COVID-19 Closure,Completely Locked
Anibal Aviles Playground,pg,M,2020-05-21 11:07:40,40.801185093933164,-73.96285717221897,COVID-19 Closure,Completely Locked
Osborn Playground,pg,B,2020-05-21 11:06:52,40.656169612719296,-73.90600761428495,COVID-19 Closure,Partially Locked
Ehrenreich-Austin Playground,pg,Q,2020-05-21 11:08:44,40.715834916566145,-73.83728058334096,COVID-19 Closure,Completely Locked
Andrews Grove,pg,Q,2020-05-21 11:08:10,40.74332915404052,-73.95467011264563,COVID-19 Closure,Completely Locked
Vincent V Abate Plgd,pg,B,2020-05-21 11:05:46,40.721270829689836,-73.9499625093795,COVID-19 Closure,Completely Locked
Grady Playground,pg,B,2020-05-21 11:06:33,40.58236358129078,-73.96452063004645,COVID-19 Closure,Completely Locked
Playground 52 LII,pg,X,2020-05-21 11:10:02,40.81543687404802,-73.90108849541171,COVID-19 Closure,Completely Locked
North Rochdale Playground,pg,Q,2020-05-21 11:09:08,40.68015853689949,-73.77499341455155,COVID-19 Closure,Partially Locked
Frederick B. Judge Playground,pg,Q,2020-05-21 11:08:25,40.68321846546777,-73.80819005279066,COVID-19 Closure,Not Lockable
Lt. Lia Playground,pg,R,2020-05-21 11:09:28,40.64360635338413,-74.07981614948575,COVID-19 Closure,Not Lockable
Harry Chapin Playground,pg,B,2020-05-21 11:06:14,40.70067368394003,-73.99489958008606,COVID-19 Closure,Completely Locked
Police Officer Edward Byrne Park,pg,Q,2020-05-21 11:08:16,40.66745348747779,-73.80689253913049,COVID-19 Closure,Not Lockable
Bildersee Playground,pg,B,2020-05-21 11:10:22,40.63590463922898,-73.91196792730062,COVID-19 Closure,Completely Locked
Plgd w/ Mini Pool & Courts,pg,X,2020-05-21 11:09:47,40.87749056662002,-73.87638008456669,COVID-19 Closure,Completely Locked
Beach Channel Playground,pg,Q,2020-05-21 11:09:06,40.588961993231145,-73.80547333165102,COVID-19 Closure,Completely Locked
Rolph Henry Playground,pg,B,2020-05-21 11:05:59,40.65581542019236,-73.94754953340225,COVID-19 Closure,Completely Locked
Saw Mill Playground,pg,X,2020-05-21 11:10:09,40.80876187302073,-73.91918288625519,COVID-19 Closure,Completely Locked
Little Engine Playground,pg,M,2020-05-21 11:07:56,40.77785493204592,-73.98899584965632,COVID-19 Closure,Completely Locked
Babi Yar Triangle,pg,B,2020-05-21 11:07:01,40.57933099865552,-73.95464808599756,COVID-19 Closure,Completely Locked
St Mary's Plgd South,pg,X,2020-05-21 11:09:41,40.81038501737071,-73.91390104045239,COVID-19 Closure,Completely Locked
Bowne Playground,pg,Q,2020-05-21 11:08:00,40.770504808173925,-73.80590973437077,COVID-19 Closure,Partially Locked
Tot Lot One Hundred And Ten,pg,M,2020-05-21 11:07:20,40.80514396505033,-73.96864394318372,COVID-19 Closure,Completely Locked
John Allen Payne Playground,pg,B,2020-05-21 11:06:07,40.63987553638941,-74.02368436312263,COVID-19 Closure,Completely Locked
Marcus Garvey Memorial Park,pg,M,2020-05-21 11:07:16,40.80587134053573,-73.94350066433908,COVID-19 Closure,Completely Locked
Howard Von Dohlen Playground,pg,Q,2020-05-21 11:08:24,40.699759067877466,-73.81285728577082,COVID-19 Closure,Not Lockable
William McCray Playground,pg,M,2020-05-21 11:07:28,40.815485307024595,-73.93755567210778,COVID-19 Closure,Completely Locked
Joseph Devoy Playground,pg,Q,2020-05-21 11:08:04,40.707557765708415,-73.85143758479433,COVID-19 Closure,Completely Locked
Captain Jacob Joseph Playground,pg,M,2020-05-21 11:07:30,40.713612991163664,-73.98983054392062,COVID-19 Closure,Completely Locked
Harvey Playground,pg,Q,2020-05-21 11:08:15,40.78263817807148,-73.82377057246394,COVID-19 Closure,Partially Locked
Commodore Barry Park Playground,pg,B,2020-05-21 11:05:40,40.69774139931239,-73.97872566021009,COVID-19 Closure,Completely Locked
Happy Warrior Playground,pg,M,2020-05-21 11:07:45,40.79557619136582,-73.96799624376598,COVID-19 Closure,Completely Locked
Harold Ickes Playground,pg,B,2020-05-21 11:10:19,40.68255841300845,-74.00622397222614,COVID-19 Closure,Completely Locked
79 St Plgd,pg,B,2020-05-21 11:05:51,40.631769514110076,-74.03920852396425,COVID-19 Closure,Not Lockable
Horatio Playground,pg,Q,2020-05-21 11:07:58,40.758672369877985,-73.75356295376841,COVID-19 Closure,Partially Locked
Heritage Field Playground,pg,X,2020-05-21 11:09:36,40.82774374409822,-73.92783779539239,COVID-19 Closure,Completely Locked
Ft George Plgd,pg,M,2020-05-21 11:07:11,40.858387684075836,-73.92624047914103,COVID-19 Closure,Completely Locked
Seton Park Playground,pg,X,2020-05-21 11:10:04,40.88670735307142,-73.91708162650481,COVID-19 Closure,Not Lockable
Baruch Playground,pg,M,2020-05-21 11:07:35,40.71684043007303,-73.97679189486652,COVID-19 Closure,Completely Locked
Brownsville Playground,pg,B,2020-05-21 11:06:31,40.65666003236532,-73.90154432245689,COVID-19 Closure,Completely Locked
Cambria Playground,pg,Q,2020-05-21 11:08:51,40.68853321685699,-73.74223444902272,COVID-19 Closure,Partially Locked
Rivington St Plgd,pg,M,2020-05-21 11:07:26,40.721334745620375,-73.99176620383473,COVID-19 Closure,Completely Locked
Sternberg Park,pg,B,2020-05-21 11:05:45,40.705838423206096,-73.94681737479728,COVID-19 Closure,Partially Locked
Owls Head Park,pg,B,2020-05-21 11:05:48,40.63938902445176,-74.03082540220147,COVID-19 Closure,Completely Locked
Emerson Plgd,pg,M,2020-05-21 11:07:13,40.86962495349457,-73.9220952128408,COVID-19 Closure,Completely Locked
Redwood Playground,pg,Q,2020-05-21 11:08:08,40.72690971590036,-73.77561950762023,COVID-19 Closure,Completely Locked
Safari Plgd,pg,M,2020-05-21 11:07:05,40.788480879479,-73.9664312942917,COVID-19 Closure,Completely Locked
Tompkins Square Park,pg,M,2020-05-21 11:07:23,40.72562183794636,-73.98154119829178,COVID-19 Closure,Completely Locked
Beach 59th St Playground,pg,Q,2020-05-21 11:08:32,40.58924951042761,-73.78905757258312,COVID-19 Closure,Completely Locked
Detective Dillon Stewart Plgd,pg,B,2020-05-21 11:05:49,40.65138221550969,-73.96538240034484,COVID-19 Closure,Completely Locked
Belmont Playground,pg,X,2020-05-21 11:09:48,40.85064295081136,-73.88776028737885,COVID-19 Closure,Completely Locked
Hamilton Metz Field,pg,B,2020-05-21 11:06:06,40.662744455793245,-73.94034877103694,COVID-19 Closure,Completely Locked
De Witt Clinton Park,pg,M,2020-05-21 11:07:08,40.767976023958525,-73.9950817757294,COVID-19 Closure,Partially Locked
Bushwick Inlet,pg,B,2020-05-21 11:10:34,40.7223997225046,-73.96138190825654,COVID-19 Closure,Completely Locked
Caserta Playground,pg,X,2020-05-21 11:09:58,40.83730541231291,-73.85364325524283,COVID-19 Closure,Completely Locked
Irving Square Park,pg,B,2020-05-21 11:05:44,40.692981736794835,-73.90871643992195,COVID-19 Closure,Partially Locked
Hell's Kitchen Park,pg,M,2020-05-21 11:07:52,40.762947507955566,-73.99261479104096,COVID-19 Closure,Completely Locked
Jerome Playground South,pg,X,2020-05-21 11:10:24,40.844802711483624,-73.91400243035305,COVID-19 Closure,Completely Locked
Stroud Playground,pg,B,2020-05-21 11:06:52,40.6749748723643,-73.9623791996071,COVID-19 Closure,Not Lockable
Whitefish Triangle,pg,Q,2020-05-21 11:08:57,40.725093972369336,-73.89890066709265,COVID-19 Closure,Completely Locked
Lawrence Virgilio Playground,pg,Q,2020-05-21 11:08:10,40.74746268426398,-73.9103695289947,COVID-19 Closure,Not Lockable
Playground One Twenty Five CXXV,pg,M,2020-05-21 11:07:41,40.810923808355604,-73.95566343986059,COVID-19 Closure,Completely Locked
Eastchester Playground,pg,X,2020-05-21 11:09:57,40.86979487168941,-73.85245398034172,COVID-19 Closure,Completely Locked
Ambrosini Field,pg,X,2020-05-21 11:10:10,40.844192189691725,-73.78479097275695,COVID-19 Closure,Completely Locked
Gun Hill Playground,pg,X,2020-05-21 11:09:58,40.874671507473245,-73.86534882269179,COVID-19 Closure,Partially Locked
Bay Terrace Playground,pg,Q,2020-05-21 11:09:05,40.782521389702275,-73.77736906278447,COVID-19 Closure,Partially Locked
Claremont Park Playground,pg,X,2020-05-21 11:09:32,40.84233598498643,-73.90920096300259,COVID-19 Closure,Not Lockable
Wakefield Playground,pg,X,2020-05-21 11:10:02,40.9019034482127,-73.85480688483248,COVID-19 Closure,Completely Locked
River Park,pg,X,2020-05-21 11:09:31,40.84331301837515,-73.87733163694911,COVID-19 Closure,Completely Locked
Neptune Playground,pg,B,2020-05-21 11:06:48,40.57819120653599,-73.98064341657472,COVID-19 Closure,Completely Locked
Paerdegat Park,pg,B,2020-05-21 11:10:36,40.638357610249855,-73.93834704422521,COVID-19 Closure,Partially Locked
Banneker Playground,pg,B,2020-05-21 11:05:58,40.69056946123988,-73.94851097351015,COVID-19 Closure,Completely Locked
Davis Playground,pg,R,2020-05-21 11:09:25,40.642480739319076,-74.08525044954938,COVID-19 Closure,Completely Locked
Bill Bojangles Robinson Playground,pg,M,2020-05-21 11:07:32,40.82520869603824,-73.93730612522704,COVID-19 Closure,Completely Locked
Clintonville Playground,pg,Q,2020-05-21 11:09:02,40.78305382226958,-73.80647707064473,COVID-19 Closure,Completely Locked
Woodruff Playground,pg,B,2020-05-21 11:06:43,40.665491452625055,-73.86602376811457,COVID-19 Closure,Completely Locked
Knox-Gates Playground,pg,X,2020-05-21 11:09:38,40.881882140164066,-73.88519749944606,COVID-19 Closure,Partially Locked
Park Of The Americas,pg,Q,2020-05-21 02:47:04,40.74882771897507,-73.8621202919175,COVID-19 Closure,Completely Locked
Nautilus Playground,pg,Q,2020-05-21 11:09:11,40.68452064593484,-73.77015997408743,COVID-19 Closure,Partially Locked
Underhill Playground,pg,B,2020-05-21 11:06:03,40.67661386239499,-73.96578839371443,COVID-19 Closure,Completely Locked
Mary Whalen Playground,pg,Q,2020-05-21 11:08:05,40.695693579292026,-73.86512098116543,COVID-19 Closure,Completely Locked
Seward Park,pg,M,2020-05-21 11:07:22,40.71465843708582,-73.989670261156,COVID-19 Closure,Completely Locked
Ten Eyck Plaza,pg,B,2020-05-21 11:06:57,40.70927219168727,-73.94934246845584,COVID-19 Closure,Completely Locked
Playground Twenty One,pg,Q,2020-05-21 11:08:50,40.77822500915348,-73.79805602519941,COVID-19 Closure,Completely Locked
St. Gregory's Playground,pg,M,2020-05-21 11:07:55,40.78954695007316,-73.97186832544391,COVID-19 Closure,Completely Locked
River Run Plgd,pg,M,2020-05-21 11:07:18,40.78694756250532,-73.98223948091294,COVID-19 Closure,Completely Locked
Astoria Heights Playground,pg,Q,2020-05-21 11:08:02,40.76083193602498,-73.9115766283439,COVID-19 Closure,Completely Locked
J.J. Byrne Playground,pg,B,2020-05-21 11:05:56,40.67280683402547,-73.98411990218283,COVID-19 Closure,Completely Locked
Eleanor Roosevelt Playground,pg,B,2020-05-21 11:06:54,40.692776387284674,-73.9358731466295,COVID-19 Closure,Not Lockable
Cobble Hill Park,pg,B,2020-05-21 11:06:46,40.68834140398793,-73.9964407549974,COVID-19 Closure,Not Lockable
Samuel Seabury Playground,pg,M,2020-05-21 11:07:46,40.78551191476255,-73.950705608907,COVID-19 Closure,Completely Locked
Discovery Playground,pg,M,2020-05-21 11:07:10,40.84018108695653,-73.94767461839041,COVID-19 Closure,Completely Locked
Grant Park,pg,X,2020-05-21 11:10:12,40.836061939132186,-73.91387359355451,COVID-19 Closure,Completely Locked
Garibaldi Playground,pg,B,2020-05-21 11:06:03,40.60893573535234,-74.00011845336108,COVID-19 Closure,Completely Locked
Hunter's Point South Playground (North),pg,Q,2020-05-21 11:10:34,40.74299005773622,-73.96042454620768,COVID-19 Closure,Completely Locked
Marcy Playground,pg,B,2020-05-21 11:55:22,40.695613937869794,-73.94988354544951,COVID-19 Closure,Completely Locked
White Park,pg,R,2020-05-21 11:09:16,40.607390220967005,-74.06297751976027,COVID-19 Closure,Completely Locked
Tall Oak Playground,pg,Q,2020-05-21 11:08:46,40.746295306916835,-73.758077886749,COVID-19 Closure,Completely Locked
Martin Luther Playground,pg,B,2020-05-21 11:05:53,40.64577250184221,-74.01990770394158,COVID-19 Closure,Completely Locked
The Tarr-Coyne Tots Playground,pg,M,2020-05-21 11:07:03,40.77332355951838,-73.97706441244853,COVID-19 Closure,Completely Locked
Sheltering Arms Playground,pg,M,2020-05-21 11:07:36,40.81458400791152,-73.95580849921934,COVID-19 Closure,Completely Locked
Rachel Carson Playground,pg,Q,2020-05-21 11:08:43,40.749242308501366,-73.82201395820057,COVID-19 Closure,Completely Locked
Margaret I. Carman Green - Weeping Beech,pg,Q,2020-05-21 11:08:08,40.76367400758754,-73.8245881861926,COVID-19 Closure,Completely Locked
Paul Raimonda Playground,pg,Q,2020-05-21 11:08:40,40.772578060336684,-73.8975802268552,COVID-19 Closure,Completely Locked
Classon Playground,pg,B,2020-05-21 11:06:36,40.68927820402047,-73.96046436382187,COVID-19 Closure,Completely Locked
Bufano Park,pg,X,2020-05-21 11:09:50,40.8378545580122,-73.83091196673031,COVID-19 Closure,Completely Locked
Lafayette Playground,pg,B,2020-05-21 11:10:26,40.59450882940557,-73.98528984420022,COVID-19 Closure,Completely Locked
Triborough Bridge Playground D,pg,Q,2020-05-21 11:10:26,40.77349304601811,-73.9215565417972,COVID-19 Closure,Completely Locked
Admiral Farragut Playground,pg,X,2020-05-21 11:09:54,40.84307448234812,-73.89207393984692,COVID-19 Closure,Completely Locked
Greencroft Playground,pg,R,2020-05-21 11:09:25,40.55211807544102,-74.13614080934289,COVID-19 Closure,Not Lockable
Prall Playground,pg,R,2020-05-21 11:10:23,40.62860283355659,-74.11813711903565,COVID-19 Closure,Completely Locked
West Playground,pg,B,2020-05-21 11:06:23,40.58673816164759,-73.9701573712429,COVID-19 Closure,Completely Locked
Merriam Plgd (Upper),pg,X,2020-05-21 11:09:55,40.840368141681346,-73.92679096652621,COVID-19 Closure,Completely Locked
Billy Johnson Plgd,pg,M,2020-05-21 11:07:02,40.769523666207576,-73.96987094004493,COVID-19 Closure,Completely Locked
Arrochar Playground,pg,R,2020-05-21 11:09:20,40.59770956219811,-74.07123012077257,COVID-19 Closure,Completely Locked
McKinley Playground,pg,M,2020-05-21 11:10:17,40.724300489802424,-73.98573990666199,COVID-19 Closure,Completely Locked
Bellevue South Park,pg,M,2020-05-21 11:07:51,40.74019959765347,-73.97790282494573,COVID-19 Closure,Completely Locked
Ciccarone Park,pg,X,2020-05-21 11:09:46,40.85582019169882,-73.88662703413259,COVID-19 Closure,Completely Locked
Morningside Plgd,pg,M,2020-05-21 11:07:16,40.80605336274242,-73.95831074188884,COVID-19 Closure,Completely Locked
Levy Playground,pg,R,2020-05-21 11:09:19,40.63397166716877,-74.12895313228292,COVID-19 Closure,Completely Locked
Norelli-Hargreaves Playground,pg,Q,2020-05-21 11:08:36,40.69061560444805,-73.80909565768931,COVID-19 Closure,Not Lockable
Peace Park,pg,X,2020-05-21 11:09:53,40.8451929127981,-73.9050033263655,COVID-19 Closure,Completely Locked
Turtle Playground,pg,Q,2020-05-21 11:08:56,40.742229554476104,-73.8275987350313,COVID-19 Closure,Completely Locked
Bernard Plgd,pg,M,2020-05-21 11:07:06,40.79571048920544,-73.95041266720263,COVID-19 Closure,Completely Locked
St. Nicholas Playground North,pg,M,2020-05-21 11:07:42,40.81216843507374,-73.94656211887923,COVID-19 Closure,Completely Locked
Bloomingdale Playground,pg,M,2020-05-21 11:07:48,40.79920630552473,-73.96623924536433,COVID-19 Closure,Partially Locked
Stockton Playground,pg,B,2020-05-21 11:06:37,40.697202021682365,-73.94819360865246,COVID-19 Closure,Completely Locked
Ruppert Park,pg,M,2020-05-21 11:07:55,40.78097339774245,-73.95035867556676,COVID-19 Closure,Completely Locked
Sarsfield Playground,pg,B,2020-05-21 11:06:07,40.62011508710501,-73.93755898125029,COVID-19 Closure,Completely Locked
Rodney Playground South,pg,B,2020-05-21 11:06:15,40.70980618444638,-73.95590092225957,COVID-19 Closure,Completely Locked
Williamsbridge Oval,pg,X,2020-05-21 11:09:47,40.877330078034326,-73.87853843813757,COVID-19 Closure,Completely Locked
Jamaica Playground,pg,Q,2020-05-21 11:08:43,40.693199649186504,-73.79028051894427,COVID-19 Closure,Completely Locked
Dyker Plgd,pg,B,2020-05-21 02:40:30,40.612851115557596,-74.01270733208919,COVID-19 Closure,Completely Locked
Madison Square Park,pg,M,2020-05-21 11:07:15,40.74257706384666,-73.98733343362774,COVID-19 Closure,Completely Locked
High Rock Plgd,pg,X,2020-05-21 11:09:43,40.88839107285441,-73.84085630950743,COVID-19 Closure,Not Lockable
Pomonok Playground,pg,Q,2020-05-21 11:08:49,40.73660646725633,-73.81388518530281,COVID-19 Closure,Partially Locked
World's Fair Playground,pg,Q,2020-05-21 11:08:17,40.736741293298735,-73.84568772492868,COVID-19 Closure,Completely Locked
Cedar Grove Playground,pg,Q,2020-05-21 11:10:28,40.736161178299305,-73.82447014460872,COVID-19 Closure,Completely Locked
Sandpiper Playground,pg,Q,2020-05-21 11:10:32,40.580140786121255,-73.82768662288156,COVID-19 Closure,Completely Locked
Star Spangled Playground,pg,B,2020-05-21 11:06:29,40.69143271156067,-73.95769079969445,COVID-19 Closure,Completely Locked
Boerum Park,pg,B,2020-05-21 11:06:55,40.6845287353325,-73.99018994369567,COVID-19 Closure,Completely Locked
Wolfe's Pond Park,pg,R,2020-05-21 11:09:18,40.516073518021706,-74.19099352528075,COVID-19 Closure,Not Lockable
James Michael Levin Plgd,pg,M,2020-05-21 11:07:03,40.77582415428499,-73.96523041416837,COVID-19 Closure,Completely Locked
Brookville Playground,pg,Q,2020-05-21 11:10:32,40.663170463732996,-73.74146880799663,COVID-19 Closure,Partially Locked
Dean Playground,pg,B,2020-05-21 11:06:18,40.681108743269135,-73.97361848913778,COVID-19 Closure,Completely Locked
Power Playground,pg,B,2020-05-21 11:06:36,40.618535398524585,-73.92718871370316,COVID-19 Closure,Completely Locked
Bleecker Playground,pg,M,2020-05-21 11:07:50,40.7363336043277,-74.00545691959022,COVID-19 Closure,Completely Locked
Hamilton Fish Park,pg,M,2020-05-21 11:07:10,40.72016262399113,-73.98045508318076,COVID-19 Closure,Completely Locked
Renaissance Playground,pg,M,2020-05-21 11:07:49,40.82151743508389,-73.94179264689603,COVID-19 Closure,Partially Locked
Silver Lake Park Tot Lot,pg,R,2020-05-21 11:09:17,40.62895395525512,-74.0907207670213,COVID-19 Closure,Not Lockable
Hallets Point Playground (area B),pg,Q,2020-05-21 11:08:38,40.77419461592117,-73.93757354639126,COVID-19 Closure,Completely Locked
Printers Park,pg,X,2020-05-21 11:10:13,40.82335655081821,-73.89072966871001,COVID-19 Closure,Completely Locked
Agnes Haywood Playground,pg,X,2020-05-21 11:10:00,40.880427415315324,-73.86151791457327,COVID-19 Closure,Completely Locked
Midland Beach Playground,pg,R,2020-05-21 11:09:20,40.57443612280323,-74.08451083138573,COVID-19 Closure,Completely Locked
Mullaly Plgd (1),pg,X,2020-05-21 11:09:38,40.83137585289406,-73.92540837132907,COVID-19 Closure,Completely Locked
Grover Cleveland Playground,pg,Q,2020-05-21 11:07:58,40.711458779117294,-73.91102624088246,COVID-19 Closure,Completely Locked
South Beach Playground,pg,R,2020-05-21 11:10:32,40.59222427173603,-74.0633282511802,COVID-19 Closure,Not Lockable
Hilltop Playground,pg,B,2020-05-21 11:10:27,40.67532564231405,-73.91433859819634,COVID-19 Closure,Completely Locked
Fresh Meadows Playground,pg,Q,2020-05-21 11:08:46,40.734366259309816,-73.7964406711299,COVID-19 Closure,Partially Locked
James Weldon Johnson Playground,pg,M,2020-05-21 11:07:28,40.79728209100962,-73.94226350605727,COVID-19 Closure,Partially Locked
Cleopatra Playground,pg,X,2020-05-21 11:10:10,40.845564758816295,-73.9042171996137,COVID-19 Closure,Completely Locked
Electric Playground,pg,Q,2020-05-21 11:08:51,40.73561777885169,-73.80544837791278,COVID-19 Closure,Completely Locked
Transmitter,pg,B,2020-05-21 11:10:34,40.729860595826246,-73.96075155236146,COVID-19 Closure,Completely Locked
Dutch Kills Playground,pg,Q,2020-05-21 11:08:36,40.75779875775367,-73.93303856113954,COVID-19 Closure,Completely Locked
Bedford Playground,pg,B,2020-05-21 11:05:59,40.708099934398,-73.96401899423562,COVID-19 Closure,Completely Locked
Hillside Playground,pg,Q,2020-05-21 11:08:55,40.74073556738071,-73.71296915125657,COVID-19 Closure,Partially Locked
Thorpe Family Playground,pg,X,2020-05-21 11:10:15,40.85623539569055,-73.89487949773847,COVID-19 Closure,Completely Locked
Playground Eighty Nine LXXXIX,pg,M,2020-05-21 11:07:52,40.788560957606,-73.97177270292322,COVID-19 Closure,Completely Locked
Monsignor Kett Playground,pg,M,2020-05-21 11:07:39,40.8626335523917,-73.92067061898437,COVID-19 Closure,Completely Locked
Newport Playground,pg,B,2020-05-21 11:06:49,40.661080323904635,-73.9069315968374,COVID-19 Closure,Completely Locked
Martinez Playground,pg,B,2020-05-21 11:10:20,40.70907217948066,-73.9446026718634,COVID-19 Closure,Completely Locked
Othmar Ammann Playground,pg,M,2020-05-21 11:07:52,40.801745461053144,-73.93249106413707,COVID-19 Closure,Completely Locked
Josephine Caminiti Playground,pg,Q,2020-05-21 11:08:11,40.74400898009541,-73.86152162227714,COVID-19 Closure,Completely Locked
Robert Moses Playground,pg,M,2020-05-21 04:00:25,40.748276004548025,-73.96967127385228,COVID-19 Closure,Partially Locked
Francis Lewis Playground,pg,Q,2020-05-21 11:08:28,40.79647978305262,-73.8246092869839,COVID-19 Closure,Partially Locked
Harold Schneiderman Playground,pg,Q,2020-05-21 11:09:07,40.664838169212,-73.85064519473025,COVID-19 Closure,Completely Locked
Tremont Plgd (1),pg,X,2020-05-21 11:09:33,40.846123232535064,-73.89373235164783,COVID-19 Closure,Completely Locked
Sperandeo Brothers Playground,pg,B,2020-05-21 11:06:05,40.67776038323962,-73.88385300640164,COVID-19 Closure,Completely Locked
El Shabazz Playground,pg,B,2020-05-21 11:06:43,40.682859010780874,-73.93085348990532,COVID-19 Closure,Completely Locked
Sachkerah Woods Playground,pg,X,2020-05-21 11:09:45,40.883938427149474,-73.88160199994827,COVID-19 Closure,Completely Locked
James J Walker Park,pg,M,2020-05-21 11:07:12,40.72996045403933,-74.0057802867495,COVID-19 Closure,Partially Locked
Colonel David Marcus Playground,pg,B,2020-05-21 11:05:57,40.61026298889189,-73.9687817102833,COVID-19 Closure,Partially Locked
Francis Lewis Playground,pg,Q,2020-05-21 11:09:01,40.7606310222825,-73.78403065736686,COVID-19 Closure,Partially Locked
Sutphin Playground,pg,Q,2020-05-21 11:07:59,40.67476824652798,-73.78912192845159,COVID-19 Closure,Completely Locked
Space Time Playground,pg,X,2020-05-21 11:10:08,40.82204084258828,-73.85979834882518,COVID-19 Closure,Completely Locked
Bathgate Playground,pg,X,2020-05-21 11:10:10,40.852171053584684,-73.894396385697,COVID-19 Closure,Completely Locked
Dinosaur Plgd,pg,M,2020-05-21 11:07:19,40.79693145667825,-73.97502268404713,COVID-19 Closure,Completely Locked
Umma Park,pg,B,2020-05-21 11:06:57,40.65353054843795,-73.96188021123623,COVID-19 Closure,Completely Locked
Lincoln Rd Plgd,pg,B,2020-05-21 11:05:50,40.66083002202685,-73.96340538281882,COVID-19 Closure,Completely Locked
Tanahey Playground,pg,M,2020-05-21 11:07:41,40.71010849295297,-73.99589189919652,COVID-19 Closure,Completely Locked
Henry Hudson Playground (West),pg,X,2020-05-21 11:09:44,40.881129918539536,-73.92060241919614,COVID-19 Closure,Completely Locked
Penn Triangle,pg,B,2020-05-21 11:06:14,40.70084727339525,-73.9607783493492,COVID-19 Closure,Completely Locked
D'Emic Playground,pg,B,2020-05-21 11:06:08,40.656140994223136,-74.00502387314818,COVID-19 Closure,Completely Locked
Vleigh Playground,pg,Q,2020-05-21 11:08:47,40.729773120943165,-73.81600783459572,COVID-19 Closure,Partially Locked
Cedar Playground,pg,X,2020-05-21 11:09:48,40.85522232848698,-73.91739802049636,COVID-19 Closure,Not Lockable
Belmont Playground,pg,B,2020-05-21 11:06:34,40.675453206229605,-73.86292335836661,COVID-19 Closure,Completely Locked
Riverbend Playground,pg,X,2020-05-21 11:10:01,40.87186236872236,-73.90598536762948,COVID-19 Closure,Completely Locked
Vesuvio Playground,pg,M,2020-05-21 11:07:17,40.72545304842911,-74.00257438479728,COVID-19 Closure,Completely Locked
Horseshoe Playground,pg,X,2020-05-21 11:09:35,40.82406797074609,-73.89770702840573,COVID-19 Closure,Completely Locked
Woodhull Playground,pg,R,2020-05-21 11:09:22,40.532150743130224,-74.19792860036205,COVID-19 Closure,Completely Locked
100% Playground,pg,B,2020-05-21 11:06:51,40.64636502270268,-73.89872614625612,COVID-19 Closure,Completely Locked
Kelly Park Playground,pg,B,2020-05-21 11:05:44,40.60368951761293,-73.95797327688167,COVID-19 Closure,Completely Locked
Mafera Park,pg,Q,2020-05-21 11:08:44,40.70575335926465,-73.89117989596498,COVID-19 Closure,Completely Locked
Rudin Plgd,pg,M,2020-05-21 11:07:05,40.791883130353355,-73.96404901038363,COVID-19 Closure,Completely Locked
Crescent Beach Tot Lot,pg,R,2020-05-21 11:09:30,40.53581203125039,-74.14672300361626,COVID-19 Closure,Completely Locked
Dr John's Plgd,pg,B,2020-05-21 11:05:46,40.59671356674165,-73.92876097917582,COVID-19 Closure,Completely Locked
Martin Luther King Jr. Playground,pg,B,2020-05-21 11:05:45,40.667250132958856,-73.89032981549796,COVID-19 Closure,Completely Locked
Boxcar Plgd (6),pg,X,2020-05-21 11:09:34,40.836907054116885,-73.89294607785766,COVID-19 Closure,Not Lockable
Hammel Playground,pg,Q,2020-05-21 11:08:58,40.58821562102592,-73.80967323478804,COVID-19 Closure,Completely Locked
Rockaway Playground - M,pg,Q,2020-05-21 11:08:33,40.584981133183064,-73.80987069653744,COVID-19 Closure,Completely Locked
Youth Village,pg,X,2020-05-21 11:10:10,40.82867268087954,-73.90292623803576,COVID-19 Closure,Completely Locked
Nelson Rockefeller Park Playground South,pg,M,2020-05-21 11:07:53,40.715919389307,-74.01672773692549,COVID-19 Closure,Completely Locked
Each One Teach One,pg,M,2020-05-21 11:10:35,40.80715733428305,-73.93456837943461,COVID-19 Closure,Partially Locked
Waring Plgd,pg,X,2020-05-21 11:09:31,40.86065404421847,-73.87152736149612,COVID-19 Closure,Not Lockable
Wild West Plgd,pg,M,2020-05-21 11:07:05,40.78988663968055,-73.96544164583226,COVID-19 Closure,Completely Locked
Almeda Playground,pg,Q,2020-05-21 11:09:11,40.59320124670589,-73.79471816734406,COVID-19 Closure,Completely Locked
Playground,pg,Q,2020-05-21 11:08:09,40.74945497575928,-73.80740174121165,COVID-19 Closure,Completely Locked
P.O. Reinaldo Salgado Playground,pg,B,2020-05-21 11:06:16,40.688176930099566,-73.92528186746587,COVID-19 Closure,Completely Locked
Dunbar Playground,pg,X,2020-05-21 11:10:25,40.82301077739179,-73.90644375088101,COVID-19 Closure,Completely Locked
J Hood Wright Park Playground,pg,M,2020-05-21 11:07:26,40.84584454380831,-73.94100342153354,COVID-19 Closure,Partially Locked
Saul Weprin Playground,pg,Q,2020-05-21 11:08:40,40.74849858900335,-73.77632444768986,COVID-19 Closure,Partially Locked
Mosholu Playground,pg,X,2020-05-21 11:10:04,40.87215926311461,-73.88285996626405,COVID-19 Closure,Completely Locked
Copernicus Triangle,pg,Q,2020-05-21 11:09:14,40.72599290168484,-73.905647631551,COVID-19 Closure,Completely Locked
Terrace Playground,pg,R,2020-05-21 11:09:23,40.613896710286454,-74.09824150683279,COVID-19 Closure,Completely Locked
Sgt. William Dougherty Playground,pg,B,2020-05-21 11:10:18,40.72363820349036,-73.93703762280433,COVID-19 Closure,Completely Locked
Blake Hobbs Playground,pg,M,2020-05-21 11:07:43,40.788906889248324,-73.94408584263212,COVID-19 Closure,Completely Locked
Van Dyke Playground,pg,B,2020-05-21 11:06:22,40.664625189809804,-73.90426821219393,COVID-19 Closure,Completely Locked
Julio Carballo Fields,pg,X,2020-05-21 11:10:11,40.81512859373143,-73.88880152036673,COVID-19 Closure,Completely Locked
Kennedy Playground,pg,Q,2020-05-21 11:08:23,40.77096704393672,-73.7794335432834,COVID-19 Closure,Partially Locked
Pink Playground,pg,B,2020-05-21 11:06:42,40.66665897669982,-73.86238738595682,COVID-19 Closure,Completely Locked
Challenge Playground,pg,Q,2020-05-21 11:08:53,40.75709612629377,-73.72806254272606,COVID-19 Closure,Partially Locked
Triborough Bridge Playground B,pg,Q,2020-05-21 11:08:13,40.77450955273059,-73.92324514918867,COVID-19 Closure,Completely Locked
Harlem Lane Playground,pg,M,2020-05-21 11:07:33,40.82509503019337,-73.9347147647569,COVID-19 Closure,Partially Locked
George Walker Jr. Park,pg,B,2020-05-21 11:07:00,40.678498627517605,-73.89514534899543,COVID-19 Closure,Completely Locked
Conch Playground,pg,Q,2020-05-21 11:09:03,40.59560506805807,-73.78059480698063,COVID-19 Closure,Completely Locked
Winthrop Playground,pg,B,2020-05-21 11:06:29,40.6565652459303,-73.95478994891499,COVID-19 Closure,Completely Locked
Moore Homestead Playground,pg,Q,2020-05-21 11:08:57,40.74217570081207,-73.88274481140559,COVID-19 Closure,Completely Locked
Pearl St Playground,pg,M,2020-05-21 11:07:57,40.70791540138699,-74.00391576129147,COVID-19 Closure,Completely Locked
Brookville Park Playground,pg,Q,2020-05-21 11:08:01,40.66206323239409,-73.74207837517774,COVID-19 Closure,Partially Locked
Charlie's Place,pg,B,2020-05-21 11:06:38,40.69921646089504,-73.94650474714315,COVID-19 Closure,Completely Locked
Stars & Stripes Playground,pg,X,2020-05-21 11:10:03,40.88534183778373,-73.8389496744093,COVID-19 Closure,Not Lockable
Wald Playground,pg,M,2020-05-21 11:07:40,40.71961213780313,-73.97693623716502,COVID-19 Closure,Completely Locked
Long Island Mews,pg,Q,2020-05-21 11:09:09,40.73611271339814,-73.89003327459102,COVID-19 Closure,Completely Locked
Tecumseh Playground,pg,M,2020-05-21 11:07:44,40.78194156880009,-73.97887995360031,COVID-19 Closure,Partially Locked
P.O. Serrano Playground,pg,X,2020-05-21 11:09:55,40.82365434421451,-73.85026050769126,COVID-19 Closure,Completely Locked
Edmonds Playground,pg,B,2020-05-21 11:06:45,40.68927635408039,-73.9718147905507,COVID-19 Closure,Completely Locked
Lyons Square Playground,pg,X,2020-05-21 11:09:36,40.82251919023291,-73.88815003664571,COVID-19 Closure,Not Lockable
"Playground One Forty Nine, CIL",pg,M,2020-05-21 11:07:07,40.82603098874689,-73.94115727855291,COVID-19 Closure,Completely Locked
Peter Minuit Playground,pg,M,2020-05-21 11:07:35,40.794606287199485,-73.94738841072217,COVID-19 Closure,Completely Locked
Morgan Playground,pg,X,2020-05-21 11:10:05,40.832073090012805,-73.90752685768958,COVID-19 Closure,Completely Locked
Lawrence Playground,pg,Q,2020-05-21 11:08:18,40.7483758761606,-73.83345481862513,COVID-19 Closure,Completely Locked
Sankofa Park,pg,B,2020-05-21 11:06:26,40.66548755157867,-73.88631837904049,COVID-19 Closure,Partially Locked
Indian Road Plgd,pg,M,2020-05-21 11:07:14,40.87167822645559,-73.91989754303675,COVID-19 Closure,Completely Locked
Lower Highland Playground,pg,Q,2020-05-21 11:08:06,40.68406691973535,-73.88559155103049,COVID-19 Closure,Completely Locked
Stop & Go Playground,pg,X,2020-05-21 11:10:12,40.844774653106356,-73.89894991163996,COVID-19 Closure,Completely Locked
Olinville Playground,pg,X,2020-05-21 11:09:32,40.8840857086566,-73.86697305956318,COVID-19 Closure,Completely Locked
Greenbelt Recreation Center Playground,pg,R,2020-05-21 11:09:30,40.592534548905796,-74.139060636844,COVID-19 Closure,Completely Locked
Linden Park,pg,B,2020-05-21 11:06:10,40.658162128215956,-73.88782089417894,COVID-19 Closure,Partially Locked
Lt. Joseph Petrosino Park,pg,B,2020-05-21 11:05:54,40.61914364891193,-73.99842438009131,COVID-19 Closure,Completely Locked
Frederick Johnson Playground,pg,M,2020-05-21 11:07:34,40.824882271266105,-73.93616776178548,COVID-19 Closure,Completely Locked
La Guardia Playground,pg,B,2020-05-21 11:06:05,40.71043941635947,-73.95962084661322,COVID-19 Closure,Completely Locked
Woods Playground,pg,B,2020-05-21 11:06:56,40.67466601736863,-73.92914353632395,COVID-19 Closure,Not Lockable
Sixteen Sycamores Playground,pg,B,2020-05-21 11:05:57,40.686882592870695,-73.9813065523997,COVID-19 Closure,Completely Locked
Brower Park,pg,B,2020-05-21 11:05:38,40.67350666770005,-73.94355318120708,COVID-19 Closure,Completely Locked
Tot Lot One Hundred And Twelve,pg,M,2020-05-21 11:07:20,40.80621797631117,-73.9680482193995,COVID-19 Closure,Completely Locked
Flynn Playground,pg,X,2020-05-21 11:09:52,40.820987285713564,-73.91174774087328,COVID-19 Closure,Completely Locked
Orchard Beach Plgd,pg,X,2020-05-21 11:09:40,40.8630748635306,-73.79427184154163,COVID-19 Closure,Not Lockable
Millbrook Playground,pg,X,2020-05-21 11:10:02,40.80450213836115,-73.9169368282683,COVID-19 Closure,Completely Locked
Reiff Playground,pg,Q,2020-05-21 11:09:08,40.71904102785767,-73.90175971697577,COVID-19 Closure,Completely Locked
Virginia Principe Playground,pg,Q,2020-05-21 11:08:30,40.72716584529436,-73.90402889601216,COVID-19 Closure,Completely Locked
Kolbert Playground,pg,B,2020-05-21 11:06:00,40.62021736322833,-73.95823048491982,COVID-19 Closure,Completely Locked
Russell Pedersen Playground,pg,B,2020-05-21 11:06:06,40.62676956481506,-74.0360364325401,COVID-19 Closure,Completely Locked
Murphy Brothers Playground,pg,M,2020-05-21 11:07:16,40.73055125560517,-73.97381325587106,COVID-19 Closure,Completely Locked
The Olde Towne of Flushing Burial Ground,pg,Q,2020-05-21 11:08:06,40.755554650875396,-73.80218331836393,COVID-19 Closure,Completely Locked
Third St Plgd,pg,B,2020-05-21 11:05:49,40.66719774815106,-73.97288139698679,COVID-19 Closure,Completely Locked
Caserta Playground,pg,X,2020-05-21 11:09:58,40.83746166620108,-73.85405899746502,COVID-19 Closure,Completely Locked
Ravenswood Playground,pg,Q,2020-05-21 11:08:50,40.76223579027581,-73.93585688738462,COVID-19 Closure,Not Lockable
Hoover - Manton Playgrounds,pg,Q,2020-05-21 11:08:37,40.710447989933414,-73.82016904414925,COVID-19 Closure,Partially Locked
Chiarantano Playground,pg,B,2020-05-21 11:06:56,40.63683127839124,-73.93334202970298,COVID-19 Closure,Completely Locked
Slope Park Playground,pg,B,2020-05-21 11:06:35,40.66134214752446,-73.98940328207847,COVID-19 Closure,Completely Locked
First Park,pg,M,2020-05-21 11:07:31,40.72333969327115,-73.98914143625683,COVID-19 Closure,Completely Locked
Longfellow Playground,pg,X,2020-05-21 11:10:17,40.82559506740819,-73.88755686720462,COVID-19 Closure,Completely Locked
Nelson Rockefeller Park Playground North,pg,M,2020-05-21 11:10:33,40.718087455124824,-74.0155558956247,COVID-19 Closure,Completely Locked
McDonald Playground,pg,B,2020-05-21 11:06:20,40.60131544502918,-73.97194329035692,COVID-19 Closure,Completely Locked
Willoughby Playground,pg,B,2020-05-21 11:06:52,40.69444282652739,-73.946458553835,COVID-19 Closure,Completely Locked
St. Michael's Playground,pg,Q,2020-05-21 11:08:35,40.75818890118548,-73.90042388980329,COVID-19 Closure,Completely Locked
Middleton Playground,pg,B,2020-05-21 11:05:41,40.70059615087309,-73.95555232551513,COVID-19 Closure,Completely Locked
Playground Of The Stars,pg,X,2020-05-21 11:09:35,40.83593433333507,-73.90007498198082,COVID-19 Closure,Not Lockable
Mary O'Connor Playground,pg,M,2020-05-21 11:07:40,40.74953691285807,-73.97080301003841,COVID-19 Closure,Completely Locked
Admiral Playground,pg,Q,2020-05-21 11:08:51,40.7710468978892,-73.73761012588767,COVID-19 Closure,Partially Locked
Owls Head Park,pg,B,2020-05-21 11:05:48,40.64003035206135,-74.0304745244033,COVID-19 Closure,Completely Locked
Broad Channel Park,pg,Q,2020-05-21 11:09:13,40.60055362124538,-73.8200066158419,COVID-19 Closure,Partially Locked
Patterson Playground,pg,X,2020-05-21 11:09:57,40.815969588551035,-73.92161945313254,COVID-19 Closure,Completely Locked
Sunshine Playground,pg,M,2020-05-21 11:07:55,40.78844743753004,-73.94791848381092,COVID-19 Closure,Completely Locked
Millennium Playground,pg,B,2020-05-21 11:05:45,40.635609672596736,-74.019524533345,COVID-19 Closure,Completely Locked
Faber Pool and Park,pg,R,2020-05-21 11:09:15,40.64155896393248,-74.13535490144972,COVID-19 Closure,Completely Locked
People's Park,pg,X,2020-05-21 11:09:46,40.80967649401837,-73.91715214031939,COVID-19 Closure,Completely Locked
Seeley Park,pg,B,2020-05-21 11:10:36,40.65343669950405,-73.97788831354677,COVID-19 Closure,Completely Locked
E.M.T. Christopher J. Prescott Playground,pg,R,2020-05-21 11:09:25,40.52234135591961,-74.18595003246344,COVID-19 Closure,Completely Locked
Brevoort Playground,pg,B,2020-05-21 11:06:25,40.680847057266085,-73.92280862800914,COVID-19 Closure,Partially Locked
Wayanda Park,pg,Q,2020-05-21 11:08:15,40.71102959835554,-73.73873148768278,COVID-19 Closure,Partially Locked
Al Stabile Playground,pg,Q,2020-05-21 11:08:38,40.67726673289787,-73.83540261505482,COVID-19 Closure,Completely Locked
Playground Thirty Five XXXV,pg,Q,2020-05-21 11:08:40,40.754769806666424,-73.92207144095583,COVID-19 Closure,Completely Locked
227th Street Playground,pg,X,2020-05-21 11:09:32,40.89077682661514,-73.86420495735537,COVID-19 Closure,Completely Locked
Little Claremont Playground,pg,X,2020-05-21 11:10:14,40.83888890437151,-73.90380432694214,COVID-19 Closure,Completely Locked
Evelyn's Playground,pg,M,2020-05-21 11:07:25,40.73636477229812,-73.98998058174556,COVID-19 Closure,Completely Locked
Markham Playground,pg,R,2020-05-21 11:09:24,40.622750199896096,-74.14652329805074,COVID-19 Closure,Completely Locked
Rev J Polite Playground,pg,X,2020-05-21 11:09:50,40.8267763474824,-73.89750089708764,COVID-19 Closure,Completely Locked
Triborough Bridge Playground C,pg,Q,2020-05-21 11:10:25,40.77397758383594,-73.92223876944985,COVID-19 Closure,Partially Locked
Catbird Playground,pg,M,2020-05-21 11:07:22,40.77398830190719,-73.94472528107349,COVID-19 Closure,Partially Locked
Laurelton Playground,pg,Q,2020-05-21 11:08:24,40.67053015469964,-73.73616202020527,COVID-19 Closure,Completely Locked
Coleman Playground,pg,M,2020-05-21 11:07:08,40.71086147617128,-73.99377325138477,COVID-19 Closure,Completely Locked
Leonardo Ingravallo Playground,pg,Q,2020-05-21 11:08:15,40.77612870845964,-73.81738412900336,COVID-19 Closure,Not Lockable
Neufeld Plgd,pg,M,2020-05-21 11:07:18,40.78347052200626,-73.9849482300509,COVID-19 Closure,Completely Locked
Captain Mario Fajardo Park,pg,Q,2020-05-21 11:08:43,40.74328732456715,-73.81467404010893,COVID-19 Closure,Completely Locked
Matthew P. Sapolin Playground,pg,M,2020-05-21 11:07:46,40.7774998747569,-73.9838966296744,COVID-19 Closure,Completely Locked
Ferry Point Park Zone 4,pg,X,2020-05-21 11:09:51,40.819949891544645,-73.8261409971226,COVID-19 Closure,Completely Locked
Veterans Grove,pg,Q,2020-05-21 11:08:02,40.742721186344,-73.8775495861626,COVID-19 Closure,Completely Locked
Gilbert Ramirez Park,pg,B,2020-05-21 11:05:57,40.705914581033774,-73.93478586815768,COVID-19 Closure,Completely Locked
Fish Playground,pg,B,2020-05-21 11:06:46,40.67809769503262,-73.91417866641626,COVID-19 Closure,Completely Locked
Gutenberg Playground,pg,M,2020-05-21 11:10:18,40.76346433770088,-73.99016532981383,COVID-19 Closure,Completely Locked
St Nicholas,pg,M,2020-05-21 11:07:21,40.815346780709085,-73.94916843474168,COVID-19 Closure,Partially Locked
Wild Flower Meadow Playground,pg,Q,2020-05-21 11:07:58,40.742257455465136,-73.74093928274849,COVID-19 Closure,Partially Locked
Kelly Park Playground,pg,B,2020-05-21 11:06:02,40.60467944712654,-73.9564662710086,COVID-19 Closure,Completely Locked
Detective William T. Gunn Playground,pg,Q,2020-05-21 11:08:56,40.732424652465355,-73.73162110790808,COVID-19 Closure,Partially Locked
Jennifer's Playground,pg,R,2020-05-21 11:09:28,40.620182343768285,-74.16338633197063,COVID-19 Closure,Completely Locked
Houston St Plgd,pg,M,2020-05-21 11:07:26,40.72275304987199,-73.99098510876881,COVID-19 Closure,Completely Locked
Riverdale Playground,pg,X,2020-05-21 11:10:18,40.887608168698904,-73.91477829506518,COVID-19 Closure,Completely Locked
Addabbo Playground,pg,Q,2020-05-21 11:08:16,40.67327700917607,-73.85462542418335,COVID-19 Closure,Completely Locked
Taylor Playground,pg,X,2020-05-21 11:10:01,40.83905991382106,-73.86621783365794,COVID-19 Closure,Completely Locked
Tiger Playground,pg,B,2020-05-21 11:06:42,40.687999135200926,-73.91086914951133,COVID-19 Closure,Completely Locked
Pat Hoffman Friedman Plgd,pg,M,2020-05-21 11:07:03,40.777712263006116,-73.96403322385734,COVID-19 Closure,Completely Locked
Sheltering Arms Playground,pg,M,2020-05-21 11:07:36,40.81528351878407,-73.95626247777965,COVID-19 Closure,Completely Locked
Upper Playground,pg,Q,2020-05-21 11:08:07,40.726351853769,-73.77546730402072,COVID-19 Closure,Partially Locked
Berry Playground,pg,B,2020-05-21 11:06:01,40.71261148788108,-73.96344990966399,COVID-19 Closure,Completely Locked
Oakland Gardens,pg,Q,2020-05-21 11:09:05,40.75315538778157,-73.75956168855443,COVID-19 Closure,Completely Locked
Loreto Playground,pg,X,2020-05-21 11:09:59,40.848792819995516,-73.85220176146963,COVID-19 Closure,Completely Locked
Dinapoli Plgd,pg,B,2020-05-21 11:05:40,40.63092856049085,-73.89283031666974,COVID-19 Closure,Completely Locked
East Elmhurst Playground,pg,Q,2020-05-21 11:08:59,40.7657287245674,-73.87163649279604,COVID-19 Closure,Partially Locked
Lewis Playground,pg,B,2020-05-21 11:07:01,40.69545699694889,-73.93791356821124,COVID-19 Closure,Completely Locked
Robert L. Clinkscales Playground and Community Garden,pg,M,2020-05-21 11:07:57,40.82254889079353,-73.9399028444458,COVID-19 Closure,Completely Locked
Herbert Von King Park,pg,B,2020-05-21 12:52:46,40.690128474412816,-73.94644118011509,COVID-19 Closure,Completely Locked
Murray Playground,pg,Q,2020-05-21 11:08:32,40.74717015534552,-73.94861077966216,COVID-19 Closure,Partially Locked
Jackie Robinson Park Playground,pg,B,2020-05-21 11:06:36,40.68022187499779,-73.92755469784841,COVID-19 Closure,Completely Locked
Railroad Playground,pg,B,2020-05-21 11:06:32,40.64904283513569,-73.9138834398006,COVID-19 Closure,Partially Locked
St Mary's Playground East,pg,X,2020-05-21 11:09:41,40.810364449542426,-73.91049045022089,COVID-19 Closure,Partially Locked
Playground,pg,X,2020-05-21 11:09:55,40.88121759749811,-73.90074572141768,COVID-19 Closure,Not Lockable
North Pacific Playground,pg,B,2020-05-21 11:06:53,40.68522607847544,-73.98209010556512,COVID-19 Closure,Completely Locked
Marx Brothers Playground,pg,M,2020-05-21 11:10:18,40.78433520699544,-73.94616901070847,COVID-19 Closure,Partially Locked
Dry Harbor Playground,pg,Q,2020-05-21 11:08:04,40.702456799202444,-73.86763321364178,COVID-19 Closure,Partially Locked
Anne Loftus Plgd,pg,M,2020-05-21 11:07:10,40.864997460756626,-73.9291780144028,COVID-19 Closure,Completely Locked
Abyssinian Tot Lot,pg,M,2020-05-21 11:07:55,40.817138572175324,-73.9409349785114,COVID-19 Closure,Completely Locked
Greenpoint Playground,pg,B,2020-05-21 11:05:43,40.735807077533075,-73.95893796421426,COVID-19 Closure,Completely Locked
Sol Bloom Playground,pg,M,2020-05-21 11:07:49,40.789784225518595,-73.96878616173191,COVID-19 Closure,Completely Locked
Albert J. Parham Playground,pg,B,2020-05-21 11:06:23,40.69028746850178,-73.97066917487507,COVID-19 Closure,Completely Locked
Morningside Park,pg,M,2020-05-21 11:07:15,40.801925898549214,-73.95993194336737,COVID-19 Closure,Partially Locked
Gertrude Ederle Playground,pg,M,2020-05-21 11:10:17,40.77127081252856,-73.98860424474317,COVID-19 Closure,Completely Locked
Joseph C. Sauer Park,pg,M,2020-05-21 11:07:29,40.728218007606,-73.97992033756003,COVID-19 Closure,Completely Locked
American Playground,pg,B,2020-05-21 11:05:37,40.728585809805594,-73.95802243266704,COVID-19 Closure,Completely Locked
Austin J. McDonald Playground,pg,R,2020-05-21 11:09:19,40.62939010459365,-74.11501251278202,COVID-19 Closure,Completely Locked
Ewen Playground,pg,X,2020-05-21 11:10:33,40.88312837179205,-73.90986200486039,COVID-19 Closure,Completely Locked
Glenwood Playground,pg,B,2020-05-21 11:06:19,40.63651070988111,-73.9201988650394,COVID-19 Closure,Completely Locked
Adventure Plgd,pg,M,2020-05-21 11:07:12,40.83634839365128,-73.93671219240059,COVID-19 Closure,Completely Locked
Kaltenmeier Playground,pg,R,2020-05-21 11:09:19,40.61471312352358,-74.06870898399839,COVID-19 Closure,Completely Locked
Morris Mesa,pg,X,2020-05-21 11:09:53,40.84530316782472,-73.90957858102793,COVID-19 Closure,Completely Locked
Coogan's Bluff Playground,pg,M,2020-05-21 11:07:11,40.83163182431649,-73.94000696247268,COVID-19 Closure,Completely Locked
Washington Hall Park,pg,B,2020-05-21 11:06:12,40.695244082862324,-73.9666142876403,COVID-19 Closure,Completely Locked
Arverne Playground,pg,Q,2020-05-21 11:08:45,40.59288791869831,-73.78540075450654,COVID-19 Closure,Completely Locked
Vinland Plgd,pg,B,2020-05-21 11:05:51,40.61747365788324,-74.04001746215371,COVID-19 Closure,Not Lockable
Marble Hill Playground,pg,X,2020-05-21 11:10:04,40.877817994802385,-73.90808875704839,COVID-19 Closure,Partially Locked
South Rochdale Playground,pg,Q,2020-05-21 11:09:08,40.67404502605311,-73.76891851416711,COVID-19 Closure,Partially Locked
Marion Hopkinson Playground,pg,B,2020-05-21 11:05:55,40.681763394163504,-73.91328108643027,COVID-19 Closure,Completely Locked
East 96th St Plgd,pg,M,2020-05-21 11:07:05,40.78777678393522,-73.95660330816652,COVID-19 Closure,Completely Locked
Castlewood Playground,pg,Q,2020-05-21 11:08:49,40.749995001844084,-73.72063383565543,COVID-19 Closure,Completely Locked
Lieutenant John H. Martinson Playground,pg,R,2020-05-21 11:09:25,40.53690078845679,-74.1626192242578,COVID-19 Closure,Completely Locked
Roy Wilkins Park Playground,pg,Q,2020-05-21 11:09:12,40.68585258843019,-73.77040386830576,COVID-19 Closure,Not Lockable
Ennis Playground,pg,B,2020-05-21 11:05:53,40.6707361691877,-73.99357315475815,COVID-19 Closure,Completely Locked
Henry M Jackson Playground,pg,M,2020-05-21 11:10:16,40.71395366891677,-73.98168112925228,COVID-19 Closure,Completely Locked
Washington Park,pg,X,2020-05-21 11:10:12,40.8557049136753,-73.89344361892036,COVID-19 Closure,Completely Locked
Pelican Bay Plgd,pg,X,2020-05-21 11:09:40,40.868036358310455,-73.79345214901174,COVID-19 Closure,Completely Locked
Hippo Plgd,pg,M,2020-05-21 11:07:19,40.79305862164381,-73.97820891682592,COVID-19 Closure,Completely Locked
Midland Playground,pg,R,2020-05-21 11:10:19,40.574900248794975,-74.098808665886,COVID-19 Closure,Completely Locked
Bridge Park,pg,B,2020-05-21 11:06:14,40.700820031843186,-73.98535126689617,COVID-19 Closure,Completely Locked
Evergreen Playground,pg,B,2020-05-21 11:06:48,40.68597490745017,-73.91096326792437,COVID-19 Closure,Completely Locked
Southwest Plgd,pg,X,2020-05-21 11:09:45,40.88672288447655,-73.8983522925338,COVID-19 Closure,Completely Locked
Seaside Playground,pg,Q,2020-05-21 11:09:08,40.58058236055978,-73.83103766536544,COVID-19 Closure,Completely Locked
Farm Playground,pg,Q,2020-05-21 11:08:37,40.73629242629045,-73.77762226862761,COVID-19 Closure,Partially Locked
Hunter's Point South Playground (South),pg,Q,2020-05-21 11:10:34,40.74010544435849,-73.96029913167612,COVID-19 Closure,Completely Locked
Corporal John A. Seravalli Playground,pg,M,2020-05-21 11:07:47,40.73898777318035,-74.00446732734724,COVID-19 Closure,Partially Locked
Crowley Playground,pg,Q,2020-05-21 11:08:57,40.729454586085424,-73.880118422406,COVID-19 Closure,Completely Locked
Jacob Javits Plgd,pg,M,2020-05-21 11:07:10,40.85882362601722,-73.9346150786823,COVID-19 Closure,Completely Locked
Benninger Playground,pg,Q,2020-05-21 11:08:10,40.707103648996245,-73.89845776319068,COVID-19 Closure,Completely Locked
Friends Field,pg,B,2020-05-21 11:06:56,40.61864183103399,-73.97258887667317,COVID-19 Closure,Completely Locked
"Phil ""Scooter"" Rizzuto Park",pg,Q,2020-05-21 11:08:30,40.694257210965425,-73.82194246096871,COVID-19 Closure,Partially Locked
Parkside Playground,pg,X,2020-05-21 11:09:58,40.868632567563786,-73.86808184641339,COVID-19 Closure,Not Lockable
East Springfield Playground,pg,Q,2020-05-21 11:09:06,40.698736062835906,-73.74004938714423,COVID-19 Closure,Partially Locked
Harvard Playground,pg,Q,2020-05-21 11:08:25,40.70936950904934,-73.78167353163634,COVID-19 Closure,Completely Locked
MacArthur Playground,pg,M,2020-05-21 11:07:50,40.752179794004,-73.96511753921995,COVID-19 Closure,Completely Locked
Dodger Playground,pg,B,2020-05-21 11:05:56,40.664983584990715,-73.95236841864265,COVID-19 Closure,Completely Locked
Remsen Playground,pg,B,2020-05-21 11:06:55,40.64203150686178,-73.9075718203052,COVID-19 Closure,Completely Locked
Montbellier Park,pg,Q,2020-05-21 11:09:03,40.67366315978643,-73.7567706377545,COVID-19 Closure,Not Lockable
Twenty-Four Sycamores Park,pg,M,2020-05-21 11:07:28,40.75940224218171,-73.95881050160963,COVID-19 Closure,Completely Locked
Charybdis Playground,pg,Q,2020-05-21 11:07:59,40.779816923379634,-73.92243884443543,COVID-19 Closure,Completely Locked
Gonzalo Plasencia Playground,pg,B,2020-05-21 11:06:08,40.652254060020795,-74.00806096014698,COVID-19 Closure,Completely Locked
Mentone Playground,pg,Q,2020-05-21 11:10:26,40.66623094940307,-73.74288409011237,COVID-19 Closure,Completely Locked
East 72nd St Plgd,pg,M,2020-05-21 11:07:02,40.77203907510168,-73.967876678849,COVID-19 Closure,Completely Locked
Lanett Playground,pg,Q,2020-05-21 11:09:06,40.599511622123764,-73.74435291868815,COVID-19 Closure,Completely Locked
Alexander Hamilton Playground,pg,M,2020-05-21 11:07:12,40.82309371852732,-73.95116789745151,COVID-19 Closure,Completely Locked
Sakura Park,pg,M,2020-05-21 11:07:23,40.81291607181284,-73.96253751273696,COVID-19 Closure,Partially Locked
Imagination Playground at Betsy Head,pg,B,2020-05-21 11:05:38,40.66407505612062,-73.9118521695445,COVID-19 Closure,Completely Locked
Playground One,pg,M,2020-05-21 11:07:38,40.712275395538576,-73.99761186905135,COVID-19 Closure,Completely Locked
Starlight Park Playground,pg,X,2020-05-21 11:09:52,40.834373989347455,-73.8820320094127,COVID-19 Closure,Partially Locked
Mae Grant Playground,pg,M,2020-05-21 11:07:42,40.792469308207465,-73.94962355905972,COVID-19 Closure,Completely Locked
Fox Playground,pg,B,2020-05-21 11:06:21,40.632887131467754,-73.92402490170589,COVID-19 Closure,Completely Locked
Soundview Playground,pg,X,2020-05-21 11:10:35,40.81819173351976,-73.87053880353446,COVID-19 Closure,Completely Locked
Plgd One Fifty Two CLII,pg,M,2020-05-21 11:07:06,40.828198291806636,-73.9397270327655,COVID-19 Closure,Completely Locked
Mount Hope Playground,pg,X,2020-05-21 11:10:10,40.85020604623722,-73.90952596761933,COVID-19 Closure,Completely Locked
Williamsbridge Oval,pg,X,2020-05-21 11:09:47,40.878606385638086,-73.87714657651055,COVID-19 Closure,Completely Locked
Harmony Playground,pg,B,2020-05-21 11:05:50,40.66354163685454,-73.9769926906666,COVID-19 Closure,Completely Locked
Colden Playground,pg,Q,2020-05-21 11:08:53,40.77015015641377,-73.82699866319749,COVID-19 Closure,Completely Locked
Bay 8 Playground,pg,B,2020-05-21 02:41:00,40.606789517408714,-74.01619801789985,COVID-19 Closure,Completely Locked
Leon S Kaiser Playground,pg,B,2020-05-21 11:10:31,40.578196438047165,-73.99535283290598,COVID-19 Closure,Completely Locked
Queens Valley Playground,pg,Q,2020-05-21 11:08:36,40.721776601987834,-73.82399404842046,COVID-19 Closure,Completely Locked
Vincent F. Albano Jr. Playground,pg,M,2020-05-21 11:07:52,40.741930806028314,-73.97843761329177,COVID-19 Closure,Completely Locked
DeSalvio Playground,pg,M,2020-05-21 11:07:44,40.721627236577,-73.99622056159414,COVID-19 Closure,Completely Locked
"Martin Luther King, Jr. Playground",pg,M,2020-05-21 11:07:39,40.80045513359205,-73.95023374409388,COVID-19 Closure,Partially Locked
La Guardia Playground,pg,B,2020-05-21 11:10:20,40.70991500503356,-73.95917250215956,COVID-19 Closure,Completely Locked
Rainey Park Playground,pg,Q,2020-05-21 11:08:11,40.76566329538724,-73.94136983303204,COVID-19 Closure,Not Lockable
Playground One Thirty Four CXXXIV,pg,X,2020-05-21 11:10:23,40.803583522673065,-73.91821831664133,COVID-19 Closure,Completely Locked
Nicholas Naquan Heyward Jr. Park,pg,B,2020-05-21 11:06:17,40.68465952210192,-73.9882634861491,COVID-19 Closure,Partially Locked
Purple Playground,pg,B,2020-05-21 11:06:24,40.66317430837572,-73.98982428639522,COVID-19 Closure,Completely Locked
Roebling Playground,pg,B,2020-05-21 11:06:27,40.706112517254326,-73.96228234059411,COVID-19 Closure,Completely Locked
Sobel Court Park,pg,R,2020-05-21 11:09:30,40.61479777192531,-74.08322829516628,COVID-19 Closure,Completely Locked
Marconi Park,pg,Q,2020-05-21 11:08:28,40.69317249688936,-73.79585112276818,COVID-19 Closure,Partially Locked
Hill & Dale Playground,pg,X,2020-05-21 11:09:34,40.837357264674495,-73.89064942604864,COVID-19 Closure,Not Lockable
Courtney Callender Playground,pg,M,2020-05-21 11:07:34,40.810115167769666,-73.93997742498641,COVID-19 Closure,Completely Locked
Rockaway Playground - N,pg,Q,2020-05-21 11:08:33,40.58539979043849,-73.80860052120337,COVID-19 Closure,Completely Locked
Mosholu Playground,pg,X,2020-05-21 11:10:04,40.87279003343103,-73.88296859659455,COVID-19 Closure,Completely Locked
Louis C. Moser Playground,pg,Q,2020-05-21 11:08:58,40.76270463819831,-73.8920636229262,COVID-19 Closure,Completely Locked
Washington Market Park,pg,M,2020-05-21 11:07:56,40.717050558770474,-74.01104731538418,COVID-19 Closure,Completely Locked
Dome Playground,pg,B,2020-05-21 11:06:00,40.63844822718989,-73.98063189080365,COVID-19 Closure,Partially Locked
Lakeview Lane Playground,pg,Q,2020-05-21 11:07:59,40.67772779557636,-73.78236503509993,COVID-19 Closure,Completely Locked
Arcilla Playground,pg,X,2020-05-21 11:10:08,40.82729461229759,-73.91453069454563,COVID-19 Closure,Completely Locked
Playground For All Children,pg,Q,2020-05-21 11:08:20,40.74118810198358,-73.84895366532423,COVID-19 Closure,Completely Locked
Mullaly Plgd (2),pg,X,2020-05-21 11:09:38,40.8342762183861,-73.92335523430893,COVID-19 Closure,Completely Locked
Claremont,pg,M,2020-05-21 11:07:19,40.81504194595486,-73.9620833112149,COVID-19 Closure,Completely Locked
Grace Playground,pg,B,2020-05-21 11:05:51,40.67188242569933,-73.89450017182706,COVID-19 Closure,Completely Locked
Mt. Morris East,pg,M,2020-05-21 11:07:16,40.80329122292206,-73.94328844625036,COVID-19 Closure,Completely Locked
Pfc Norton Playground,pg,B,2020-05-21 11:06:07,40.61463671058221,-73.94497009980635,COVID-19 Closure,Completely Locked
Louis Armstrong Playground,pg,Q,2020-05-21 11:09:07,40.75475078252132,-73.8553087514092,COVID-19 Closure,Completely Locked
Nathan Straus Playground,pg,M,2020-05-21 11:07:48,40.719658017469314,-73.9841680274137,COVID-19 Closure,Completely Locked
Equity Playground,pg,Q,2020-05-21 11:08:12,40.69172378651618,-73.85341614756797,COVID-19 Closure,Partially Locked
Carter G. Woodson Children's Park,pg,B,2020-05-21 11:06:58,40.66823796927114,-73.90582698398943,COVID-19 Closure,Completely Locked
Callahan-Kelly Playground,pg,B,2020-05-21 11:06:12,40.67838532126272,-73.90582822917736,COVID-19 Closure,Completely Locked
Richman (Echo) Park Upper,pg,X,2020-05-21 11:09:36,40.84958675970502,-73.90191027147529,COVID-19 Closure,Completely Locked
Tiffany Playground,pg,X,2020-05-21 11:10:02,40.82454572073554,-73.8941536709528,COVID-19 Closure,Completely Locked
Sunset Park Playground,pg,B,2020-05-21 11:05:51,40.64767850656325,-74.00457956783633,COVID-19 Closure,Completely Locked
Hoffman Park,pg,Q,2020-05-21 11:08:57,40.732814654337595,-73.8713360615312,COVID-19 Closure,Partially Locked
Rainbow Playground,pg,B,2020-05-21 11:06:28,40.640414731948034,-74.01113153760475,COVID-19 Closure,Completely Locked
Chester Playground,pg,B,2020-05-21 11:06:55,40.66877795615999,-73.91219217552003,COVID-19 Closure,Completely Locked
Wright Brothers Playground,pg,M,2020-05-21 11:07:46,40.83156870129957,-73.94150369235838,COVID-19 Closure,Completely Locked
John Jay Park,pg,M,2020-05-21 11:07:14,40.76954113081193,-73.94949284729812,COVID-19 Closure,Partially Locked
Cypress Hills Playground,pg,B,2020-05-21 11:05:54,40.6707001799539,-73.87119967401219,COVID-19 Closure,Completely Locked
Playground 286,pg,B,2020-05-21 11:06:41,40.59073210857797,-73.9383362481649,COVID-19 Closure,Completely Locked
Seth Low Playground/ Bealin Square,pg,B,2020-05-21 11:05:54,40.60854525801554,-73.98602436614726,COVID-19 Closure,Completely Locked
Seven Gables Playground,pg,Q,2020-05-21 11:08:07,40.7438685253691,-73.76610327334569,COVID-19 Closure,Partially Locked
Private William Gray Playground,pg,Q,2020-05-21 11:09:10,40.75787704008547,-73.87092755800535,COVID-19 Closure,Completely Locked
Hot Spot Tot Lot,pg,B,2020-05-21 11:06:09,40.63102296449947,-73.95675056141285,COVID-19 Closure,Completely Locked
Ancient Plgd,pg,M,2020-05-21 11:07:04,40.78084912347188,-73.96175118864154,COVID-19 Closure,Completely Locked
Fordham Landing Playground,pg,X,2020-05-21 11:10:24,40.86336731169044,-73.91028042000406,COVID-19 Closure,Completely Locked
Elmhurst Park,pg,Q,2020-05-21 11:09:14,40.730144539213356,-73.88496050938579,COVID-19 Closure,Completely Locked
Newtown Barge Playground,pg,B,2020-05-21 11:10:27,40.73592071658703,-73.96096391011798,COVID-19 Closure,Completely Locked
Greenwood Playground,pg,B,2020-05-21 11:05:57,40.650716738125986,-73.97651899869719,COVID-19 Closure,Completely Locked
Midland Playground,pg,R,2020-05-21 11:10:33,40.568603430345895,-74.0911379129618,COVID-19 Closure,Partially Locked
Lozada Playground,pg,X,2020-05-21 11:09:52,40.80777141490889,-73.92500072215614,COVID-19 Closure,Completely Locked
Washington Square Park,pg,M,2020-05-21 11:07:25,40.73105379430035,-73.99893252641668,COVID-19 Closure,Completely Locked
Briarwood Playground,pg,Q,2020-05-21 11:09:01,40.71065269734885,-73.81080527374299,COVID-19 Closure,Partially Locked
Whitestone Playground,pg,Q,2020-05-21 11:08:51,40.79188011815939,-73.80809766003888,COVID-19 Closure,Completely Locked
Slattery Playground,pg,X,2020-05-21 11:09:44,40.85728394633679,-73.89831637283282,COVID-19 Closure,Completely Locked
Davidson Playground,pg,X,2020-05-21 11:10:15,40.85510831956887,-73.90766638360328,COVID-19 Closure,Completely Locked
Webster Playground,pg,X,2020-05-21 11:10:01,40.85939829451661,-73.89307976115282,COVID-19 Closure,Completely Locked
Ten Mile River Plgd,pg,M,2020-05-21 11:07:33,40.829925200119845,-73.95224102606947,COVID-19 Closure,Completely Locked
Locust Manor Playground,pg,Q,2020-05-21 11:08:49,40.68574483631508,-73.75636602466213,COVID-19 Closure,Not Lockable
Hilton White Playground,pg,X,2020-05-21 11:09:48,40.82279296493902,-73.90738474379731,COVID-19 Closure,Completely Locked
Vinmont Veteran Park,pg,X,2020-05-21 11:09:55,40.90206244092975,-73.90484410589606,COVID-19 Closure,Completely Locked
Auburndale Playground,pg,Q,2020-05-21 11:09:04,40.76601297458905,-73.79420398419514,COVID-19 Closure,Completely Locked
The Painter's Playground,pg,Q,2020-05-21 11:08:45,40.72060008824243,-73.85980013552106,COVID-19 Closure,Completely Locked
Garden Playground,pg,B,2020-05-21 11:50:52,40.70110665943727,-73.93851597921929,COVID-19 Closure,Completely Locked
Carver Playground,pg,B,2020-05-21 11:06:52,40.68044781703693,-73.9203110287976,COVID-19 Closure,Completely Locked
